{"elements": [{"type": "node", "id": 34227829, "lat": 46.1981489, "lon": 6.1328044, "tags": {"addr:city": "Gen\u00e8ve", "addr:housenumber": "30", "addr:street": "Quai Ernest Ansermet", "amenity": "university", "check_date": "2025-02-14", "name": "Sciences II & Sciences III", "opening_hours": "Mo-Fr 07:00-20:00", "wheelchair": "yes"}}, {"type": "node", "id": 280027827, "lat": 47.1080672, "lon": 9.526329, "tags": {"addr:city": "Triesen", "addr:country": "LI", "addr:housenumber": "24", "addr:postcode": "9495", "addr:street": "Dorfstrasse", "amenity": "university", "name": "Private Universit\u00e4t im F\u00fcrstentum Liechtenstein (UFL)", "wikidata": "Q2111101", "wikimedia_commons": "Category:Private University in the Principality of Liechtenstein", "wikipedia": "en:Private University in the Principality of Liechtenstein"}}, {"type": "node", "id": 289563581, "lat": 47.7797534, "lon": 9.6136558, "tags": {"addr:city": "Ravensburg", "addr:housenumber": "2", "addr:postcode": "88212", "addr:street": "Marienplatz", "amenity": "university", "branch": "Campus Ravensburg", "name": "DHBW Ravensburg", "phone": "+49 751 18999 2700", "short_name": "DHBW", "toilets:wheelchair": "yes", "website": "https://www.ravensburg.dhbw.de/", "wheelchair": "yes", "wikidata": "Q1262617"}}, {"type": "node", "id": 291623970, "lat": 46.7961823, "lon": 7.1560079, "tags": {"amenity": "university", "name": "Universit\u00e9 de Fribourg / Universit\u00e4t Freiburg Regina Mundi"}}, {"type": "node", "id": 291772821, "lat": 46.7932224, "lon": 7.1581669, "tags": {"amenity": "university", "name": "Universit\u00e9 de Fribourg P\u00e9rolles"}}, {"type": "node", "id": 321848945, "lat": 47.6395219, "lon": 6.8645227, "tags": {"amenity": "university", "name": "Facult\u00e9 de Droit L\u00e9on Delarbre"}}, {"type": "node", "id": 418774779, "lat": 47.7632607, "lon": 9.1765098, "tags": {"amenity": "university", "historic": "castle", "name": "Akademie Schloss Rauenstein", "toilets:wheelchair": "no", "website": "https://www.hs-weingarten.de/web/akademie-fuer-wissenschaftliche-weiterbildung/akademie-schloss-rauenstein", "wheelchair": "no", "wikidata": "Q14912578"}}, {"type": "node", "id": 648305796, "lat": 47.0607119, "lon": 8.3212715, "tags": {"amenity": "university", "name": "Hochschule Luzern"}}, {"type": "node", "id": 675604501, "lat": 46.2741822, "lon": 6.1703644, "tags": {"addr:city": "Versoix", "addr:housenumber": "10", "addr:street": "Route de Suisse", "amenity": "university", "name": "Institut F.-A. Forel (UNIGE)"}}, {"type": "node", "id": 749753375, "lat": 46.8529036, "lon": 9.5126252, "tags": {"alt_name": "University Of Aplied Sciences Chur", "amenity": "university", "internet_access": "wlan", "name": "Fachhochschule Graub\u00fcnden", "operator": "Fachhochschule Graub\u00fcnden", "operator:type": "public", "website": "https://www.fhgr.ch/", "wheelchair": "limited"}}, {"type": "node", "id": 938109622, "lat": 45.8162517, "lon": 8.8286645, "tags": {"amenity": "university", "name": "DICOM - Universit\u00e0 degli Studi dell'Insubria"}}, {"type": "node", "id": 975264548, "lat": 46.1985541, "lon": 6.1509888, "tags": {"amenity": "university", "name": "Haute \u00e9cole d'art et de design (HEAD)", "name:en": "Geneva University of Art and Design (HEAD)", "name:fr": "Haute \u00e9cole d'art et de design (HEAD)", "operator": "Ville de Gen\u00e8ve", "website": "https://www.hesge.ch/head/"}}, {"type": "node", "id": 1131357394, "lat": 46.9575701, "lon": 7.4258117, "tags": {"amenity": "university", "name": "Schweineklinik"}}, {"type": "node", "id": 1301130749, "lat": 47.0494032, "lon": 8.2659437, "tags": {"amenity": "university", "name": "Hochschule Luzern - Design & Kunst", "wheelchair": "yes"}}, {"type": "node", "id": 1494590003, "lat": 46.1970538, "lon": 6.1347422, "tags": {"addr:housenumber": "24", "addr:street": "Quai Ernest-Ansermet", "amenity": "university", "name": "\u00c9cole de physique"}}, {"type": "node", "id": 1886729833, "lat": 47.731017, "lon": 7.3093505, "tags": {"amenity": "university", "name": "Centre Universitaire de Formation des Enseignants et Formateurs", "source": "cadastre-dgi-fr source : Direction G\u00e9n\u00e9rale des Imp\u00f4ts - Cadastre. Mise \u00e0 jour : 2012"}}, {"type": "node", "id": 1906145274, "lat": 46.201591, "lon": 6.1109613, "tags": {"amenity": "university", "name": "cmefe (inSTI) (hepia)"}}, {"type": "node", "id": 1917786600, "lat": 46.1987668, "lon": 6.138355, "tags": {"addr:city": "Gen\u00e8ve", "addr:floor": "3", "addr:housenumber": "10", "addr:postcode": "1205", "addr:street": "Rue de Vieux-Grenadiers", "amenity": "university", "name": "Global Studies Institute (UNIGE)", "operator": "Universit\u00e9 de Gen\u00e8ve", "website": "https://www.unige.ch/gsi/"}}, {"type": "node", "id": 2163974320, "lat": 46.1764639, "lon": 6.1388099, "tags": {"addr:city": "Carouge GE", "addr:country": "CH", "addr:housename": "Battelle Villa", "addr:housenumber": "7", "addr:postcode": "1227", "addr:street": "Route de Drize", "alt_name": "Technologies de Formation et Apprentissage", "amenity": "university", "contact:twitter": "https://x.com/tecfa", "education": "university", "name": "TECFA", "office": "research", "operator": "Universit\u00e9 de Gen\u00e8ve", "website": "https://tecfa.unige.ch"}}, {"type": "node", "id": 2177666179, "lat": 46.1955272, "lon": 6.1378684, "tags": {"addr:city": "Gen\u00e8ve", "addr:country": "CH", "addr:housenumber": "10", "addr:street": "Passage Daniel Baud-Bovy", "amenity": "university", "name": "Universit\u00e9 de Gen\u00e8ve - Baud-Bovy", "note": "surveyed by Alex-7", "source": "survey", "survey:date": "2013-02-27"}}, {"type": "node", "id": 2306746828, "lat": 46.519732, "lon": 6.6239129, "tags": {"addr:city": "Lausanne", "addr:housenumber": "10", "addr:street": "Avenue de Savoie", "amenity": "university", "email": "info@bnf.ch", "fax": "+41316315729", "name": "BNF \u2013 Universit\u00e4t Bern", "phone": "+41316315711", "url": "http://www.bnf.ch/"}}, {"type": "node", "id": 2443424934, "lat": 47.5458689, "lon": 7.5949396, "tags": {"amenity": "university", "check_date": "2024-10-30", "name": "Fachhochschule Nordwestschweiz Hochschule f\u00fcr Wirtschaft"}}, {"type": "node", "id": 2567287699, "lat": 46.8475627, "lon": 9.5098395, "tags": {"alt_name": "University Of Aplied Sciences Chur", "amenity": "university", "internet_access": "wlan", "name": "Fachhochschule Graub\u00fcnden, Standorte D\u2013F", "operator": "Fachhochschule Graub\u00fcnden", "operator:type": "public", "website": "https://www.fhgr.ch/", "wheelchair": "yes"}}, {"type": "node", "id": 2567287708, "lat": 46.8536992, "lon": 9.5144139, "tags": {"alt_name": "University Of Aplied Sciences Chur", "amenity": "university", "internet_access": "wlan", "name": "Fachhochschule Graub\u00fcnden, Standort B", "operator": "Fachhochschule Graub\u00fcnden", "operator:type": "public", "website": "https://www.fhgr.ch/"}}, {"type": "node", "id": 2671343294, "lat": 45.8907501, "lon": 6.1195697, "tags": {"addr:city": "Annecy", "addr:housenumber": "42", "addr:postcode": "74000", "addr:street": "Chemin de la Prairie", "amenity": "university", "education": "university", "name": "IPAC Bachelor Factory", "operator": "EduServices SAS", "operator:type": "private", "ref:UAI": "0741369L", "short_name": "IPAC", "source": "Etablissements d'enseignement sup\u00e9rieur - 09/2017", "website": "https://www.ipac-france.com/ecole-commerce-annecy"}}, {"type": "node", "id": 2686889749, "lat": 46.9556272, "lon": 7.4354422, "tags": {"alt_name": "Institut f\u00fcr Theaterwissenschaft", "amenity": "university", "contact:addr": "Mittelstrasse 43, 3012 Bern", "contact:email": "sekretariat@itw.unibe.ch", "contact:fax": "+41 31 6313988", "contact:phone": "+41 31 6313918", "name": "Institut Theaterwissenschaft", "name:en": "Institute of Theater Studies", "opening_hours": "Mo-Fr 08:30-12:00; Sa-Su off", "operator": "Universit\u00e4t Bern", "operator:type": "public", "source": "survey and website", "website": "https://www.theaterwissenschaft.unibe.ch"}}, {"type": "node", "id": 2686889750, "lat": 46.9526537, "lon": 7.4350973, "tags": {"amenity": "university", "contact:addr": "Hallerstrasse 8-10, 3012 Bern", "name": "Berner Fachhochschule BFH - Soziale Arbeit", "operator": "Berner Fachhochschule", "operator:de": "Berner Fachhochschule", "operator:fr": "Haute \u00e9cole sp\u00e9cialis\u00e9e bernoise", "website": "http://www.soziale-arbeit.bfh.ch"}}, {"type": "node", "id": 2686893081, "lat": 46.9557169, "lon": 7.4356697, "tags": {"alt_name": "Institut f\u00fcr Musikwissenschaft", "amenity": "university", "contact:addr": "Mittelstrasse 43, 3012 Bern", "contact:email": "info@musik.unibe.ch", "contact:fax": "+41 31 6313459", "contact:phone": "+41 31 6318396", "name": "Institut Musikwissenschaft", "name:en": "Institute of Musicology Berne", "name:fr": "Institut de la musicologie Berne", "name:it": "Istituto della Musicologia Berna", "operator": "Universit\u00e4t Bern", "source": "survey and website", "website": "https://www.musik.unibe.ch"}}, {"type": "node", "id": 2701135374, "lat": 46.955469, "lon": 7.435985, "tags": {"alt_name": "Institut f\u00fcr Arch\u00e4ologische Wissenschaften", "amenity": "university", "contact:addr": "Mittelstrasse 43 3012 Bern", "contact:email": "sekretariat@iaw.unibe.ch", "contact:fax": "+41 31 6314905", "contact:phone": "+41 31 6318992", "name": "Institut Arch\u00e4ologische Wissenschaften", "opening_hours": "Mo-Fr 07:30-19:00", "operator": "Universit\u00e4t Bern", "operator:type": "public", "short_name": "IAW", "website": "https://www.iaw.unibe.ch/"}}, {"type": "node", "id": 2832469755, "lat": 46.9540565, "lon": 7.4382553, "tags": {"amenity": "university", "name": "Institut Statistik", "source": "local knowledge"}}, {"type": "node", "id": 2832469759, "lat": 46.9621253, "lon": 7.4319715, "tags": {"amenity": "university", "contact:addr": "Bremgartenstrasse 145, 3012 Bern", "contact:email": "info@ispw.unibe.ch", "contact:fax": "+41 31 6318331", "contact:phone": "+41 31 6318321", "name": "Institut Sportwissenschaft", "operator": "Universit\u00e4t Bern", "website": "https://www.ispw.unibe.ch/"}}, {"type": "node", "id": 3192771508, "lat": 46.9536691, "lon": 7.4405644, "tags": {"alt_name": "Uni Bern", "amenity": "university", "contact:addr": "Engehaldenstrasse 4, 3012 Bern", "contact:email": "iuc@iuc.unibe.ch", "contact:phone": "+41 31 6313761", "name": "Institut f\u00fcr Unternehmensrechnung und Controlling", "operator": "Universit\u00e4t Bern", "operator:wikidata": "Q659080", "short_name": "IUC", "website": "https://www.iuc.unibe.ch/"}}, {"type": "node", "id": 3193937761, "lat": 46.9535013, "lon": 7.4398028, "tags": {"addr:city": "Bern", "addr:housenumber": "10", "addr:postcode": "3012", "addr:street": "Neubr\u00fcckstrasse", "alt_name": "Uni Bern", "amenity": "university", "contact:addr": "Neubr\u00fcckstrasse 10, 3012 Bern", "contact:email": "info@inf.unibe.ch", "contact:phone": "+41 31 631 86 81", "name": "Institut f\u00fcr Informatik", "operator": "Universit\u00e4t Bern", "operator:wikidata": "Q659080", "short_name": "INF", "website": "https://www.inf.unibe.ch/"}}, {"type": "node", "id": 3193937762, "lat": 46.9539396, "lon": 7.4397015, "tags": {"addr:city": "Bern", "addr:housenumber": "8", "addr:postcode": "3012", "addr:street": "Engehaldenstrasse", "alt_name": "Uni Bern", "amenity": "university", "contact:addr": "Engehaldenstrasse 8, 3012 Bern", "contact:fax": "+41 31 6314682", "contact:phone": "+41 31 6314785", "name": "Institut f\u00fcr Wirtschaftsinformatik", "operator": "Universit\u00e4t Bern", "operator:wikidata": "Q659080", "short_name": "IWI", "website": "https://www.iwi.unibe.ch/"}}, {"type": "node", "id": 3193937764, "lat": 46.9540558, "lon": 7.4401582, "tags": {"alt_name": "Uni Bern", "amenity": "university", "contact:addr": "Engehaldenstrasse 4, 3012 Bern", "contact:phone": "+41 31 6313775", "name": "Abteilung Finanzmanagement", "name:en": "Institute for Financial Management", "operator": "Universit\u00e4t Bern", "operator:wikidata": "Q659080", "short_name": "IFM", "website": "https://www.ifm.unibe.ch/"}}, {"type": "node", "id": 3193937765, "lat": 46.9539591, "lon": 7.4402597, "tags": {"addr:city": "Bern", "addr:housenumber": "4", "addr:postcode": "3012", "addr:street": "Engehaldenstrasse", "alt_name": "Uni Bern", "amenity": "university", "contact:addr": "Engehaldenstrasse 4, 3012 Bern", "contact:phone": "+41 31 6318031", "name": "Institut f\u00fcr Marketing und Unternehmensf\u00fchrung", "operator": "Universit\u00e4t Bern", "operator:wikidata": "Q659080", "short_name": "IMU", "website": "https://www.imu.unibe.ch/"}}, {"type": "node", "id": 3193937766, "lat": 46.9537658, "lon": 7.4404628, "tags": {"addr:city": "Bern", "addr:housenumber": "4", "addr:postcode": "3012", "addr:street": "Engehaldenstrasse", "alt_name": "Uni Bern", "amenity": "university", "contact:addr": "Engehaldenstrasse 4, 3012 Bern", "contact:email": "iop@iop.unibe.ch", "contact:phone": "+41 31 6318069", "name": "Institut f\u00fcr Organisation und Personal", "operator": "Universit\u00e4t Bern", "operator:wikidata": "Q659080", "short_name": "IOP", "website": "https://www.iop.unibe.ch/"}}, {"type": "node", "id": 3385295857, "lat": 46.9522263, "lon": 7.4350215, "tags": {"addr:city": "Bern", "addr:housenumber": "6", "addr:postcode": "3012", "addr:street": "Hallerstrasse", "amenity": "university", "contact:addr": "Hallerstrasse 6, 3012 Bern", "contact:email": "secretary@issibern.ch", "contact:phone": "+41 31 63148 96", "faculty": "aerospace", "name": "International Space Science Institute", "name:ca": "Institut Internacional de Ci\u00e8ncies Espacials", "name:fr": "Institut international des sciences spatiales", "name:ko": "\uad6d\uc81c\uc6b0\uc8fc\uacfc\ud559\uc5f0\uad6c\uc18c", "office": "university", "operator": "University of Bern", "operator:de": "Universit\u00e4t Bern", "operator:fr": "Universit\u00e9 de Berne", "operator:type": "private_non_profit", "short_name": "ISSI", "website": "http://www.issibern.ch", "wikidata": "Q6053561", "wikipedia": "fr:Institut international des sciences spatiales"}}, {"type": "node", "id": 3671421729, "lat": 46.1972358, "lon": 6.136766, "tags": {"addr:city": "Gen\u00e8ve", "addr:housenumber": "66", "addr:street": "Boulevard Carl-Vogt", "amenity": "university", "check_date": "2025-07-09", "name": "Universit\u00e9 de Gen\u00e8ve"}}, {"type": "node", "id": 3856374184, "lat": 47.4107931, "lon": 8.5402012, "tags": {"addr:city": "Z\u00fcrich", "addr:housename": "UZH-AFL", "addr:housenumber": "56", "addr:postcode": "8050", "addr:street": "Affolternstrasse", "amenity": "university", "check_date": "2024-04-24", "name": "Universit\u00e4t Z\u00fcrich, Oerlikon (AFL)"}}, {"type": "node", "id": 4128385885, "lat": 46.5231527, "lon": 6.6104024, "tags": {"addr:city": "Lausanne", "addr:housenumber": "8", "addr:postcode": "1004", "addr:street": "Avenue de Provence", "amenity": "university", "name": "HES-SO - Haute \u00e9cole sp\u00e9cialis\u00e9e de Suisse occidentale", "website": "https://www.hes-so.ch"}}, {"type": "node", "id": 4199539723, "lat": 46.9506279, "lon": 7.4384753, "tags": {"addr:city": "Bern", "addr:housenumber": "4", "addr:postcode": "3012", "addr:street": "Hochschulstrasse", "alt_name": "Oeschger-Zentrum f\u00fcr Klimaforschung", "amenity": "university", "contact:email": "info@oeschger.unibe.ch", "contact:phone": "+41 31 6313145", "name": "Oeschger Centre for Climate Change Research", "operator": "University of Bern", "operator:de": "Universit\u00e4t Bern", "operator:fr": "Universit\u00e9 de Berne", "short_name": "OCCR", "website": "https://www.oeschger.unibe.ch/index_ger.html"}}, {"type": "node", "id": 4377211163, "lat": 47.5612651, "lon": 7.5752961, "tags": {"addr:city": "Basel", "addr:housenumber": "60-62", "addr:postcode": "4055", "addr:street": "Missionsstrasse", "amenity": "university", "check_date": "2024-09-09", "name": "Faculty of Psychology, University of Basel", "operator": "University of Basel"}}, {"type": "node", "id": 4416455666, "lat": 46.9573869, "lon": 7.4255523, "tags": {"amenity": "university", "name": "OP", "operator": "Tierspital", "source": "Amtliche Vermessung"}}, {"type": "node", "id": 4416463281, "lat": 46.9569258, "lon": 7.4252911, "tags": {"amenity": "university", "name": "Radiologie Grosstiere"}}, {"type": "node", "id": 4416467838, "lat": 46.956771, "lon": 7.4249141, "tags": {"amenity": "university", "check_date": "2024-08-22", "name": "Kleintierklinik"}}, {"type": "node", "id": 4416473131, "lat": 46.9565096, "lon": 7.4257858, "tags": {"amenity": "university", "name": "H\u00f6rsaal"}}, {"type": "node", "id": 4416473134, "lat": 46.9564666, "lon": 7.425706, "tags": {"amenity": "university", "name": "Pharmakologie"}}, {"type": "node", "id": 4416495799, "lat": 46.9575524, "lon": 7.4269125, "tags": {"amenity": "university", "name": "Wildtiere, Fische"}}, {"type": "node", "id": 4417485663, "lat": 46.9563047, "lon": 7.4259719, "tags": {"amenity": "university", "check_date": "2024-08-22", "name": "Empfang"}}, {"type": "node", "id": 4417631105, "lat": 46.9577472, "lon": 7.4260666, "tags": {"amenity": "university", "name": "H\u00f6rsaal, Klinikhalle, OP mit Galerie"}}, {"type": "node", "id": 4417631107, "lat": 46.9579216, "lon": 7.4262845, "tags": {"amenity": "university", "name": "Wiederk\u00e4uerklinik"}}, {"type": "node", "id": 4418239653, "lat": 46.9536356, "lon": 7.4225231, "tags": {"amenity": "university", "check_date": "2025-09-01", "contact:addr": "Fabrikstrasse 8, 3012 Bern", "name": "Institut Sekundarstufe I", "operator": "PH Bern", "website": "https://www.phbern.ch/ueber-die-phbern/institute/institut-sekundarstufe-i.html"}}, {"type": "node", "id": 4418239654, "lat": 46.9531123, "lon": 7.4285004, "tags": {"amenity": "university", "check_date": "2025-04-08", "contact:addr": "Muesmattstrasse 29, 3012 Bern", "name": "Seminarr\u00e4ume Grundausbildungen PH Bern", "operator": "PH Bern"}}, {"type": "node", "id": 4428956437, "lat": 46.9515501, "lon": 7.4291808, "tags": {"amenity": "university", "check_date": "2022-05-11", "email": "office.ana@unibe.ch", "name": "Institut f\u00fcr Anatomie", "operator": "Uni Bern", "phone": "+41 31 684 84 33", "website": "https://www.ana.unibe.ch/"}}, {"type": "node", "id": 4428956438, "lat": 46.9516894, "lon": 7.429851, "tags": {"amenity": "university", "contact:addr": "B\u00fchlstrasse 26, 3012 Bern", "contact:phone": "+41 31 6318473", "name": "Institut f\u00fcr Medizingeschichte", "operator": "Uni Bern", "website": "https://www.img.unibe.ch/"}}, {"type": "node", "id": 4434804936, "lat": 46.9571285, "lon": 7.4271014, "tags": {"amenity": "university", "name": "Bakteriologie, Pathologie"}}, {"type": "node", "id": 4434804937, "lat": 46.9568832, "lon": 7.4275815, "tags": {"amenity": "university", "name": "H\u00f6rsaal"}}, {"type": "node", "id": 4434804939, "lat": 46.9569427, "lon": 7.4274166, "tags": {"amenity": "university", "name": "Virologie"}}, {"type": "node", "id": 4437888480, "lat": 46.9573419, "lon": 7.4267733, "tags": {"amenity": "university", "name": "Parasitologie"}}, {"type": "node", "id": 5002825178, "lat": 47.380495, "lon": 8.5369878, "tags": {"amenity": "university", "education": "university", "name": "Fachhochschule Graub\u00fcnden University of Applied Sciences"}}, {"type": "node", "id": 5177884950, "lat": 46.952296, "lon": 7.4350455, "tags": {"alt_name": "World Trade Institute, University of Bern", "amenity": "university", "contact:addr": "Hallerstrasse 6, 3012 Bern", "email": "inquire@wti.org", "fax": "+41 31 6313630", "name": "World Trade Institute", "name:fa": "\u0645\u0624\u0633\u0633\u0647 \u062a\u062c\u0627\u0631\u062a \u062c\u0647\u0627\u0646\u06cc", "operator": "University of Bern", "operator:de": "Universit\u00e4t Bern", "operator:fr": "Universit\u00e9 de Berne", "phone": "+41 31 6313270", "short_name": "WTI", "website": "https://www.wti.org/", "wikidata": "Q4247417", "wikipedia": "de:World Trade Institute"}}, {"type": "node", "id": 5177891621, "lat": 46.9523324, "lon": 7.4347805, "tags": {"alt_name": "Institut f\u00fcr Europa- und Wirtschaftsv\u00f6lkerrecht", "amenity": "university", "contact:addr": "Hallerstrasse 6, 3012 Bern", "contact:phone": "+41 31 6313625", "name": "Institut Europa- und Wirtschaftsv\u00f6lkerrecht", "operator": "University of Bern", "operator:de": "Universit\u00e4t Bern", "operator:fr": "Universit\u00e9 de Berne", "website": "https://www.iew.unibe.ch/"}}, {"type": "node", "id": 5257829387, "lat": 47.4143948, "lon": 8.5496239, "tags": {"addr:city": "Z\u00fcrich", "addr:housename": "UZH-BIN", "addr:housenumber": "14", "addr:postcode": "8050", "addr:street": "Binzm\u00fchlestrasse", "amenity": "university", "check_date": "2026-03-06", "name": "Universit\u00e4t Z\u00fcrich, Oerlikon (BIN)", "wheelchair": "yes"}}, {"type": "node", "id": 5257829388, "lat": 47.4131889, "lon": 8.5487502, "tags": {"addr:city": "Z\u00fcrich", "addr:housename": "UZH-AND", "addr:housenumber": "15", "addr:postcode": "8050", "addr:street": "Andreasstrasse", "amenity": "university", "building": "yes", "name": "Universit\u00e4t Z\u00fcrich, Oerlikon (AND)", "wheelchair": "yes"}}, {"type": "node", "id": 5387469418, "lat": 46.9522798, "lon": 7.4346227, "tags": {"amenity": "university", "contact:addr": "Hallerstrasse 6, 3012 Bern", "contact:email": "nccr@wti.org", "contact:phone": "+41 31 6313270", "name": "National Centres of Competence in Research Trade Regulation", "operator": "University of Bern - World Trade Institute", "operator:de": "Universit\u00e4t Bern - World Trade Institute", "operator:fr": "Universit\u00e9 de Berne - World Trade Institute", "short_name": "nccr trade regulation", "website": "https://www.nccr-trade.org/"}}, {"type": "node", "id": 5456903919, "lat": 46.4250067, "lon": 6.9242308, "tags": {"amenity": "university", "name": "MBU", "wikidata": "Q18391097"}}, {"type": "node", "id": 5461468089, "lat": 46.195123, "lon": 6.1421224, "tags": {"addr:city": "Gen\u00e8ve", "addr:housenumber": "28", "addr:postcode": "1205", "addr:street": "Boulevard du Pont-d'Arve", "amenity": "university", "description": "Centre interfacultaire de g\u00e9rontologie et d'\u00e9tudes des vuln\u00e9rabilit\u00e9s", "name": "Universit\u00e9 de Gen\u00e8ve - CIGEV", "opening_hours": "Mo-Fr 09:00-12:00, 14:00-17:00", "phone": "+41223793790", "website": "https://cigev.unige.ch/"}}, {"type": "node", "id": 5653983963, "lat": 47.6404609, "lon": 6.8477654, "tags": {"amenity": "university", "check_date": "2025-06-24", "name": "AFPA-Production"}}, {"type": "node", "id": 5666860094, "lat": 47.6523113, "lon": 6.8346226, "tags": {"amenity": "university", "name": "Les Compagnons du Devoir du Tour de France", "office": "company"}}, {"type": "node", "id": 5666860115, "lat": 47.6474905, "lon": 6.8409258, "tags": {"amenity": "university", "name": "ETC Group"}}, {"type": "node", "id": 5666860120, "lat": 47.6437319, "lon": 6.8441471, "tags": {"amenity": "university", "name": "Crepi"}}, {"type": "node", "id": 5666861248, "lat": 47.6437047, "lon": 6.8441632, "tags": {"amenity": "university", "name": "Access Code School"}}, {"type": "node", "id": 5723254655, "lat": 46.1976717, "lon": 6.1338833, "tags": {"addr:city": "Gen\u00e8ve", "addr:housenumber": "16", "addr:postcode": "1205", "addr:street": "Boulevard d'Yvoy", "amenity": "university", "check_date": "2024-12-15", "description": "Ce b\u00e2timent abrite la section de physique et de chimie de l'universit\u00e9 de Gen\u00e8ve", "internet_access": "wlan", "internet_access:ssid": "gest-unige", "name": "Science I"}}, {"type": "node", "id": 5871246987, "lat": 46.5288516, "lon": 6.5919006, "tags": {"addr:city": "Renens (VD)", "addr:housenumber": "1", "addr:postcode": "1020", "addr:street": "Avenue de Longemalle", "amenity": "university", "name": "Haute \u00e9cole f\u00e9d\u00e9rale en formation professionnelle", "old_name": "Institut f\u00e9d\u00e9ral des hautes \u00e9tudes en formation professionnelle IFFP", "short_name": "HEFP", "website": "https://www.hefp.swiss/la-hefp/nos-sites/site-hefp-renens-pres-de-lausanne"}}, {"type": "node", "id": 6024424483, "lat": 46.1980067, "lon": 6.1336247, "tags": {"addr:city": "Gen\u00e8ve", "addr:housenumber": "4", "addr:postcode": "1205", "addr:street": "Boulevard D'Yvoy", "amenity": "university", "name": "D\u00e9partement de G\u00e9n\u00e9tique & Evolution (GenEV)", "website": "https://genev.unige.ch"}}, {"type": "node", "id": 6262182243, "lat": 46.9523275, "lon": 7.4301376, "tags": {"amenity": "university", "check_date": "2026-01-17", "contact:addr": "Freiestrasse 1, 3012 Bern", "contact:phone": "+41 31 6314141", "name": "Theodor Kocher Institut", "operator": "Uni Bern", "website": "https://www.tki.unibe.ch/"}}, {"type": "node", "id": 6262182244, "lat": 46.951926, "lon": 7.4300821, "tags": {"amenity": "university", "check_date": "2026-01-17", "contact:addr": "B\u00fchlstrasse 28, 3012 Bern", "contact:email": "info@ibmm.unibe.ch", "contact:phone": "+41 31 6314111", "name": "Institut f\u00fcr Biochemie und Molekularmedizin", "operator": "Uni Bern", "website": "https://www.ibmm.unibe.ch/"}}, {"type": "node", "id": 6262182245, "lat": 46.9520634, "lon": 7.4304628, "tags": {"amenity": "university", "contact:addr": "B\u00fchlplatz 5, 3012 Bern", "contact:phone": "+41 31 6318711", "name": "Institut f\u00fcr Physiologie", "operator": "Uni Bern", "website": "http://www.physio.unibe.ch"}}, {"type": "node", "id": 6275666643, "lat": 46.9528806, "lon": 7.4349994, "tags": {"amenity": "university", "contact:addr": "Hallerstrasse 12, 3012 Bern", "contact:email": "info@giub.unibe.ch", "contact:fax": "+41 31 6318511", "contact:phone": "+41 31 631 88 75", "name": "Geographisches Institut", "name:de": "Geographisches Institut", "name:en": "Institute of Geography", "name:fr": "Institut de G\u00e9ographie", "operator": "Universit\u00e4t Bern", "operator:de": "Universit\u00e4t Bern", "operator:en": "University of Berne", "operator:fr": "Universit\u00e9 de Berne", "short_name": "GIUB", "website": "https://www.geography.unibe.ch/"}}, {"type": "node", "id": 6313600320, "lat": 46.9442626, "lon": 7.4485484, "tags": {"amenity": "university", "contact:addr": "Helvetiaplatz 2, 3005 Bern", "contact:email": "info.iwm@phbern.ch", "contact:phone": "+41 31 3092800", "name": "Mediothek Institut f\u00fcr Weiterbildung und Medienbildung", "operator": "PH Bern", "website": "https://www.phbern.ch/ueber-die-phbern/institute/institut-fuer-weiterbildung-und-medienbildung.html"}}, {"type": "node", "id": 6344462574, "lat": 46.2045944, "lon": 6.1876558, "tags": {"addr:city": "Ch\u00eane-Bougeries", "addr:housenumber": "4bis", "addr:postcode": "1224", "addr:street": "Avenue de-Gasparin", "amenity": "university", "name": "Tai Chi Gen\u00e8ve", "operator": "Yuko Doucet Naga\u00ef", "website": "https://taichi-geneve.ch"}}, {"type": "node", "id": 6344468484, "lat": 46.2054669, "lon": 6.1858322, "tags": {"addr:city": "Cologny", "addr:housenumber": "33", "addr:postcode": "1227", "addr:street": "Chemin de la Gradelle", "amenity": "university", "name": "Tai Chi Gen\u00e8ve", "operator": "Yuko Doucet Naga\u00ef", "website": "https://taichi-geneve.ch"}}, {"type": "node", "id": 6376571427, "lat": 46.9535814, "lon": 7.4402725, "tags": {"alt_name": "Uni Bern", "amenity": "university", "contact:addr": "Sch\u00fctzenmattstrasse 14, 3012 Bern", "contact:email": "fdn@inf.unibe.ch", "contact:facebook": "https://www.facebook.com/digitalenachhaltigkeit/", "contact:phone": "+41 31 6314771", "contact:twitter": "https://twitter.com/researchdigisus", "name": "Forschungsstelle Digitale Nachhaltigkeit", "name:de": "Forschungsstelle Digitale Nachhaltigkeit", "name:en": "Research center for digital sustainability", "name:fr": "Centre de recherche sur la durabilit\u00e9 num\u00e9rique", "short_name": "FDN", "source": "survey and website", "website": "https://www.digitale-nachhaltigkeit.unibe.ch", "wikidata": "Q63558709"}}, {"type": "node", "id": 6892727465, "lat": 46.8543495, "lon": 9.508919, "tags": {"addr:city": "Chur", "addr:housenumber": "80", "addr:postcode": "7000", "addr:street": "Pulverm\u00fchlestrasse", "amenity": "university", "check_date": "2026-03-07", "internet_access": "wlan", "name": "Fachhochschule Graub\u00fcnden, Standort C", "operator": "Fachhochschule Graub\u00fcnden", "operator:type": "public", "website": "https://www.fhgr.ch/"}}, {"type": "node", "id": 6892727471, "lat": 46.8470126, "lon": 9.5101193, "tags": {"addr:city": "Chur", "addr:housenumber": "24", "addr:postcode": "7000", "addr:street": "Comercialstrasse", "amenity": "university", "internet_access": "wlan", "name": "Fachhochschule Graub\u00fcnden, Standort H", "operator": "Fachhochschule Graub\u00fcnden", "operator:type": "public", "website": "https://www.fhgr.ch/"}}, {"type": "node", "id": 7056633720, "lat": 47.1400574, "lon": 7.2424966, "tags": {"addr:city": "Biel/Bienne", "addr:housename": "Rockhall IV", "addr:housenumber": "99", "addr:postcode": "2502", "addr:street": "Faubourg du Lac / Seevorstadt", "amenity": "university", "name": "Schweizerisches Literaturinstitut", "name:fr": "Institut litt\u00e9raire suisse", "operator": "Hochschule der K\u00fcnste Bern", "operator:type": "public", "website": "https://www.institutlitteraire.ch/"}}, {"type": "node", "id": 7095256446, "lat": 46.1976384, "lon": 6.1331794, "tags": {"addr:housenumber": "30", "addr:postcode": "1205", "addr:street": "Quai Ernest-Ansermet", "amenity": "university", "name": "Bioimaging Center", "website": "https://bioimaging.unige.ch/"}}, {"type": "node", "id": 7118719982, "lat": 46.5246335, "lon": 6.6393129, "tags": {"addr:city": "Lausanne", "addr:housenumber": "21", "addr:postcode": "1011", "addr:street": "Rue du Bugnon", "amenity": "university", "check_date": "2025-02-12", "internet_access": "wlan", "name": "D\u00e9canat de la Facult\u00e9 de Biologie et de M\u00e9decine", "operator": "CHUV", "operator:type": "public", "website": "https://unil.ch/fbm"}}, {"type": "node", "id": 7278477253, "lat": 46.9555881, "lon": 7.4362804, "tags": {"amenity": "university", "contact:addr": "Mittelstrasse 43, 3012 Bern", "contact:phone": "+41 31 6314741", "name": "Institut f\u00fcr Kunstgeschichte", "operator": "Universit\u00e4t Bern", "operator:type": "public", "short_name": "IKG", "website": "https://www.ikg.unibe.ch"}}, {"type": "node", "id": 7549166005, "lat": 46.9461685, "lon": 7.4368209, "tags": {"addr:full": "Maulbeerstrasse 3, 3011 Bern", "amenity": "university", "name": "H\u00f6rsaal Universit\u00e4t Bern"}}, {"type": "node", "id": 7608721415, "lat": 46.947047, "lon": 7.4467306, "tags": {"amenity": "university", "contact:addr": "Kochergasse 4, 3011 Bern", "contact:email": "info@wyssacademy.org", "contact:phone": "+41 31 544 80 00", "name": "Wyss Academy for Nature", "website": "https://www.wyssacademy.org"}}, {"type": "node", "id": 7756639637, "lat": 46.9558065, "lon": 7.4358973, "tags": {"amenity": "university", "contact:addr": "Mittelstrasse 43, 3012 Bern", "contact:email": "info@ispm.unibe.ch", "contact:phone": "+41 31 631 35 11", "name": "Institut f\u00fcr Sozial- und Pr\u00e4ventivmedizin", "name:en": "Institute of Social and Preventive Medicine", "operator": "Universit\u00e4t Bern", "website": "https://www.ispm.unibe.ch/"}}, {"type": "node", "id": 7935777385, "lat": 46.1764888, "lon": 6.1400863, "tags": {"addr:city": "Carouge GE", "addr:country": "CH", "addr:housename": "Battelle B\u00e2timent A", "addr:housenumber": "7", "addr:postcode": "1227", "addr:street": "Route de Drize", "amenity": "university", "contact:youtube": "https://www.youtube.com/channel/UCohpE4xXEDXLc0T_lIcl-7g", "education": "university", "name": "Quality of Life Technologies Lab", "office": "research", "phone": "+41 22 379 02 42", "website": "https://www.qualityoflifetechnologies.com/", "website:events": "https://www.qualityoflifetechnologies.com/actualite/"}}, {"type": "node", "id": 7968669987, "lat": 47.7282393, "lon": 7.3102896, "tags": {"amenity": "university", "name": "CLOUS de Mulhouse"}}, {"type": "node", "id": 8294687578, "lat": 46.3785767, "lon": 7.626604, "tags": {"addr:city": "Leukerbad", "addr:housenumber": "41", "addr:postcode": "3954", "addr:street": "Thermenstrasse", "amenity": "university", "name": "HES-SO Valais", "name:de": "Hochschule f\u00fcr Gesundheit FH Wallis - HES-SO Valais-Wallis", "operator": "HES-SO Valais", "operator:type": "public", "website": "https://www.hevs.ch/de/hochschule/hochschule-fur-gesundheit/physiotherapie/"}}, {"type": "node", "id": 8360266944, "lat": 46.0124369, "lon": 8.9614647, "tags": {"amenity": "university", "description": "Dalle Molle institute for artificial intelligence (USI SUPSI). Sector C 3rd level.", "education": "university", "name": "IDSIA USI-SUPSI", "wikidata": "Q5211467", "wikipedia": "en:Dalle Molle Institute for Artificial Intelligence Research"}}, {"type": "node", "id": 8456599586, "lat": 45.9204791, "lon": 6.153245, "tags": {"addr:city": "Annecy", "addr:housenumber": "9", "addr:postcode": "74940", "addr:street": "Rue de l'Arc en Ciel", "amenity": "university", "name": "IUT d'Annecy", "operator": "Universit\u00e9 Savoie Mont Blanc", "ref:UAI": "0741133E", "source": "cadastre-dgi-fr source : Direction G\u00e9n\u00e9rale des Imp\u00f4ts - Cadastre. Mise \u00e0 jour : 2010", "website": "https://www.iut-acy.univ-smb.fr/", "wikidata": "Q3152671"}}, {"type": "node", "id": 8497617586, "lat": 46.5268069, "lon": 6.6051066, "tags": {"addr:city": "Lausanne", "addr:country": "CH", "addr:housenumber": "5", "addr:street": "Rue du Grand-Pr\u00e9", "amenity": "university", "check_date": "2023-04-22", "name": "La Manufacture - Haute \u00e9cole des arts de la sc\u00e8ne", "phone": "+41 21 557 41 60", "website": "https://www.manufacture.ch/"}}, {"type": "node", "id": 8570706111, "lat": 47.4219977, "lon": 9.371735, "tags": {"addr:city": "St.Gallen", "addr:floor": "3", "addr:housenumber": "26", "addr:postcode": "9000", "addr:street": "Kornhausstrasse", "amenity": "university", "education": "university", "floor": "3", "name": "Fachbereich Gesundheit (N4)", "operator": "OST", "website": "https://www.ost.ch/"}}, {"type": "node", "id": 8570760455, "lat": 47.4214491, "lon": 9.3713258, "tags": {"addr:city": "St.Gallen", "addr:floor": "6", "addr:housenumber": "29", "addr:postcode": "9000", "addr:street": "Vadianstrasse", "amenity": "university", "education": "university", "level": "6", "name": "Praxisr\u00e4ume Pflege (N3)", "operator": "OST", "website": "https://www.ost.ch/"}}, {"type": "node", "id": 8570784455, "lat": 47.4219893, "lon": 9.371748, "tags": {"addr:city": "St.Gallen", "addr:floor": "2;5", "addr:housenumber": "26", "addr:postcode": "9000", "addr:street": "Kornhausstrasse", "amenity": "university", "education": "university", "level": "2;5", "name": "Praxisr\u00e4ume Pflege (N4)", "operator": "OST", "website": "https://www.ost.ch/"}}, {"type": "node", "id": 8640162470, "lat": 47.7388703, "lon": 7.3321469, "tags": {"amenity": "university", "check_date": "2025-09-15", "name": "Facult\u00e9 des Sciences \u00e9conomiques, sociales et juridiques", "operator": "Universit\u00e9 de Haute-Alsace"}}, {"type": "node", "id": 8725700542, "lat": 47.0493618, "lon": 8.3126287, "tags": {"addr:housenumber": "3", "addr:postcode": "6005", "addr:street": "Frohburgstrasse", "amenity": "university", "name": "P\u00e4dagogische Hochschule Luzern", "wheelchair": "yes"}}, {"type": "node", "id": 8725700543, "lat": 47.0493508, "lon": 8.3124811, "tags": {"addr:housenumber": "3", "addr:postcode": "6005", "addr:street": "Frohburgstrasse", "amenity": "university", "name": "Universit\u00e4t Luzern", "wheelchair": "yes", "wikidata": "Q673308"}}, {"type": "node", "id": 8729132019, "lat": 47.1376916, "lon": 7.244416, "tags": {"addr:city": "Biel/Bienne", "addr:housenumber": "16", "addr:postcode": "2502", "addr:street": "Rue du R\u00fcschli / R\u00fcschlistrasse", "amenity": "university", "name": "PH Bern Beratungsstelle", "website": "https://www.phbern.ch/beratungsstelle-biel"}}, {"type": "node", "id": 9294652605, "lat": 46.1365649, "lon": 6.1576813, "tags": {"amenity": "university", "name": "Aula"}}, {"type": "node", "id": 9809516219, "lat": 46.8025294, "lon": 7.1490731, "tags": {"amenity": "university", "name": "Beauregard 01", "short_name": "BRG 01"}}, {"type": "node", "id": 9809516220, "lat": 46.802313, "lon": 7.1463734, "tags": {"amenity": "university", "name": "Centre suisse de comp\u00e9tences en mati\u00e8re d'ex\u00e9cution des sanctions p\u00e9nales", "name:de": "Schweizerisches Kompetenzzentrum f\u00fcr den Justizvollzug", "name:it": "Centro svizzero di competenze in materia d\u2019esecuzione di sanzioni penali", "website": "https://www.skjv.ch/"}}, {"type": "node", "id": 9809516221, "lat": 46.8025093, "lon": 7.1458319, "tags": {"amenity": "university", "name": "Beauregard 13"}}, {"type": "node", "id": 9846683901, "lat": 46.7966987, "lon": 7.1506995, "tags": {"alt_name": "Haute Ecole Sp\u00e9cialis\u00e9e de Suisse occidentale;Haute \u00e9cole de sant\u00e9 Fribourg", "amenity": "university", "name": "Hes-so - HEdS-FR - HETS-FR - EF TS - FHF-SA und HfG-FR"}}, {"type": "node", "id": 10008628400, "lat": 47.5647323, "lon": 7.606072, "tags": {"addr:city": "Basel", "addr:housenumber": "154", "addr:postcode": "4058", "addr:street": "Riehenstrasse", "amenity": "university", "check_date": "2024-10-21", "internet_access": "wlan", "internet_access:fee": "customers", "internet_access:ssid": "eduroam", "name": "Europainstitut der Universit\u00e4t Basel", "name:en": "Institute for European Global Studies", "operator": "Universit\u00e4t Basel", "operator:type": "university", "website": "europa.unibas.ch"}}, {"type": "node", "id": 10055560251, "lat": 46.9492742, "lon": 7.4265379, "tags": {"addr:housenumber": "26", "addr:street": "Murtenstrasse", "amenity": "university", "contact:phone": "+41 31 684 01 00", "email": "contact@irm.unibe.ch", "name": "Institut f\u00fcr Rechtsmedizin", "operator": "Uni Bern", "website": "https://www.irm.unibe.ch/"}}, {"type": "node", "id": 10098035257, "lat": 46.0120802, "lon": 8.9606353, "tags": {"addr:city": "Viganello", "addr:housenumber": "1", "addr:postcode": "6962", "addr:street": "Via La Santa", "amenity": "university", "name": "SUPSI Dipartimento tecnologie innovative (DTI)", "website": "https://www.supsi.ch/home/supsi/sedi/dti"}}, {"type": "node", "id": 10216783734, "lat": 46.0120324, "lon": 8.9606141, "tags": {"addr:city": "Lugano", "addr:housenumber": "1", "addr:postcode": "6962", "addr:street": "Via La Santa", "amenity": "university", "internet_access": "yes", "internet_access:fee": "customers", "internet_access:ssid": "SUPSI, eduroam", "name": "Settore B", "operator": "SUPSI", "operator:type": "university", "sector": "DTI", "smart_discovery": "university", "website": "https://www.supsi.ch"}}, {"type": "node", "id": 10216846558, "lat": 46.0118317, "lon": 8.9614259, "tags": {"addr:city": "Lugano", "addr:housenumber": "1", "addr:postcode": "6962", "addr:street": "Via La Santa", "amenity": "university", "internet_access": "yes", "internet_access:fee": "customers", "internet_access:ssid": "SUPSI, eduroam", "name": "Settore D", "operator": "SUPSI", "operator:type": "university", "sector": "D", "smart_discovery": "university", "website": "https://www.supsi.ch"}}, {"type": "node", "id": 10216846559, "lat": 46.0123832, "lon": 8.9611828, "tags": {"amenity": "university", "internet_access": "yes", "internet_access:fee": "customers", "internet_access:ssid": "SUPSI, eduroam", "name": "Settore C", "operator": "SUPSI", "operator:type": "university", "sector": "C - Istituto Dalle Molle di studi sull'intelligenza artificiale (IDSIA USI-SUPSI)", "smart_discovery": "university", "website": "https://www.supsi.ch"}}, {"type": "node", "id": 10273053284, "lat": 46.1968846, "lon": 6.2324511, "tags": {"addr:city": "Annemasse", "addr:housenumber": "15", "addr:postcode": "74100", "addr:street": "Avenue \u00c9mile Zola", "amenity": "university", "contact:phone": "+33 4 50 04 54 05", "education": "university", "government": "local_authority", "level": "3", "name": "P\u00f4le m\u00e9tropolitain du Genevois fran\u00e7ais", "opening_hours": "Mo-Fr 09:00-17:00", "website": "https://www.genevoisfrancais.org/"}}, {"type": "node", "id": 10565205589, "lat": 46.5323286, "lon": 6.5920061, "tags": {"addr:city": "Renens (VD)", "addr:housenumber": "64", "addr:postcode": "1020", "addr:street": "Rue de Lausanne", "amenity": "university", "contact:facebook": "42Lausanne", "contact:instagram": "42_lausanne", "contact:twitter": "42lausanne", "email": "info@42lausanne.ch", "internet_access": "wlan", "internet_access:fee": "no", "name": "42 Lausanne", "opening_hours": "24/7", "website": "https://www.42lausanne.ch/"}}, {"type": "node", "id": 10804563390, "lat": 46.1971649, "lon": 6.136892, "tags": {"addr:city": "Gen\u00e8ve", "addr:housenumber": "66", "addr:postcode": "1205", "addr:street": "Boulevard Carl-Vogt", "amenity": "university", "check_date": "2025-07-09", "name": "Institut des sciences de l'environnement - ISE", "operator": "Universit\u00e9 de Gen\u00e8ve", "operator:type": "public", "website": "https://www.unige.ch/environnement/fr/"}}, {"type": "node", "id": 10829111765, "lat": 46.029913, "lon": 8.9205823, "tags": {"addr:city": "Manno", "addr:housenumber": "16e", "addr:postcode": "6928", "addr:street": "Via Cantonale", "amenity": "university", "internet_access": "wlan", "internet_access:fee": "no", "name": "Scuola Universitaria della Svizzera Italiana - Dipartimento Economia aziendale, sanit\u00e0 e sociale", "website": "https://www.supsi.ch/deass"}}, {"type": "node", "id": 11207183282, "lat": 47.3741749, "lon": 8.5526022, "tags": {"addr:street": "PLat", "amenity": "university", "check_date": "2026-04-14", "education": "university", "name": "UZH-PLA", "operator": "UZH", "operator:type": "university", "waste": "trash"}}, {"type": "node", "id": 11276748110, "lat": 47.3739545, "lon": 8.5489499, "tags": {"addr:city": "Z\u00fcrich", "addr:housenumber": "15", "addr:postcode": "8001", "addr:street": "Sch\u00f6nberggasse", "amenity": "university", "internet_access": "yes", "internet_access:fee": "no", "name": "UZH-SOB", "operator": "Studieninformation und Beratung (SIB)", "operator:type": "universit\u00e4t_z\u00fcrich", "website": "https://www.sib.uzh.ch/de.html"}}, {"type": "node", "id": 11333756236, "lat": 47.1413989, "lon": 7.2454511, "tags": {"addr:full": "Jakob-Rosius-Strasse 16 / Rue Jakob-Rosius 16, 2504 Biel/Bienne", "amenity": "university", "entrance": "yes", "name": "Hochschule der K\u00fcnste Bern - Musik und Bewegung"}}, {"type": "node", "id": 11407441048, "lat": 47.7480859, "lon": 7.3338337, "tags": {"amenity": "university", "name": "Universit\u00e9 Populaire", "operator:type": "private", "wheelchair": "yes"}}, {"type": "node", "id": 11539452663, "lat": 46.9538625, "lon": 7.4403613, "tags": {"addr:city": "Bern", "addr:postcode": "3012", "addr:street": "Engehaldenstrasse 4", "amenity": "university", "name": "Departement Betriebswirtschaftslehre", "operator": "Universit\u00e4t Bern", "phone": "+41 31 684 80 50", "website": "https://www.bwl.unibe.ch/index_ger.html"}}, {"type": "node", "id": 11641171757, "lat": 47.8105116, "lon": 9.6481506, "tags": {"addr:city": "Weingarten", "addr:country": "DE", "addr:housenumber": "20", "addr:postcode": "88250", "addr:street": "Doggenriedstra\u00dfe", "amenity": "university", "description": "House of Makers and Engineers", "internet_access": "wlan", "internet_access:fee": "no", "name": "H.O.M.E. Weingarten", "website": "https://home.rwu.de"}}, {"type": "node", "id": 11833781892, "lat": 46.2259206, "lon": 6.2532655, "tags": {"amenity": "university", "name": "Haute \u00e9cole du paysage d'ing\u00e9nierie et d'architecture de Gen\u00e8ve", "website": "https://www.hesge.ch/hepia/campus/acces-hepia"}}, {"type": "node", "id": 12035917887, "lat": 46.0057552, "lon": 8.9396752, "tags": {"addr:city": "Lugano", "addr:housenumber": "9", "addr:postcode": "6900", "addr:street": "Via Soldino", "amenity": "university", "check_date:currency:XBT": "2025-06-29", "currency:XBT": "yes", "name": "Conservatorio della Svizzera Italiana", "operator": "Scuola universitaria professionale della Svizzera italiana", "payment:lightning": "yes", "payment:lightning_contactless": "no", "payment:onchain": "no", "phone": "+41 91 960 30 40", "short_name": "CSI", "website": "https://www.conservatorio.ch/it", "wikidata": "Q24714140"}}, {"type": "node", "id": 12066721769, "lat": 46.1958874, "lon": 6.1365562, "tags": {"addr:housenumber": "20", "addr:street": "Rue de l'Ecole-de-M\u00e9decine", "amenity": "university", "check_date": "2025-12-23", "name": "Facult\u00e9 des sciences"}}, {"type": "node", "id": 12077293044, "lat": 47.545187, "lon": 7.597677, "tags": {"amenity": "university", "name": "Wirtschaftswissenschaftliche Fakult\u00e4t", "wikidata": "Q122829001"}}, {"type": "node", "id": 12077293045, "lat": 47.5453129, "lon": 7.5973208, "tags": {"addr:city": "Basel", "addr:housenumber": "8", "addr:postcode": "4052", "addr:street": "Peter Merian-Weg", "amenity": "university", "name": "Juristische Fakult\u00e4t Universit\u00e4t Basel", "opening_hours": "Mo-Fr 07:45-20:00; Sa 07:45-18:00", "phone": "+41 61 207 25 00", "website": "https://ius.unibas.ch/service/home/", "wikidata": "Q122829001"}}, {"type": "node", "id": 12485277338, "lat": 47.6288092, "lon": 6.1234258, "tags": {"amenity": "university", "name": "Institut national sup\u00e9rieur du professorat et de l'\u00e9ducation de Vesoul", "operator": "Universit\u00e9 de Franche-Comt\u00e9", "operator:type": "public", "ref:UAI": "0701071J", "short_name": "INSPE de Vesoul", "website": "http://inspe.univ-fcomte.fr/"}}, {"type": "node", "id": 12485277339, "lat": 47.6292411, "lon": 6.1236114, "tags": {"amenity": "university", "contact:facebook": "https://www.facebook.com/iutbv", "name": "IUT Besan\u00e7on-Vesoul - Campus de Vesoul", "ref:UAI": "0701048J", "website": "https://iut-bv.univ-fcomte.fr"}}, {"type": "node", "id": 12842644619, "lat": 45.9197634, "lon": 6.1230471, "tags": {"amenity": "university", "name": "\u00c9cole BRASSART Annecy", "operator": "BRASSART", "website": "https://www.brassart.fr/campus/ecole-annecy"}}, {"type": "node", "id": 12901498133, "lat": 46.953557, "lon": 7.4451529, "tags": {"amenity": "university", "name": "Institut f\u00fcr Pflanzenwissenschaften", "name:en": "Institute of Plant Sciences", "website": "https://www.ips.unibe.ch/"}}, {"type": "node", "id": 12905894901, "lat": 46.8535998, "lon": 9.5144093, "tags": {"addr:housenumber": "34", "addr:street": "Ringstrasse", "amenity": "university", "email": "davis@fhgr.ch", "name": "Forschungsinstitut f\u00fcr Data Analysis, Artificial Intelligence, Visualization und Simulation (DAViS)", "website": "https://www.fhgr.ch/themenschwerpunkte/angewandte-zukunftstechnologien/davis/"}}, {"type": "node", "id": 13119506437, "lat": 46.802495, "lon": 7.1490786, "tags": {"addr:city": "Fribourg", "addr:housenumber": "1", "addr:postcode": "1700", "addr:street": "Avenue Beauregard", "amenity": "university", "name": "Institut f\u00fcr F\u00f6deralismus (IFF)", "operator": "Universit\u00e4t Freiburg i.\u00dc", "operator:type": "public", "website": "https://www.unifr.ch/federalism/"}}, {"type": "node", "id": 13167206701, "lat": 47.4164868, "lon": 8.5558433, "tags": {"addr:housenumber": "50", "addr:postcode": "8050", "addr:street": "Leutschenbachstrasse", "amenity": "university", "contact:facebook": "phzuerich", "contact:instagram": "phzuerich", "level": "0-2", "name": "PH Z\u00fcrich", "name:en": "Zurich University of Teacher Education (PH Zurich)", "website": "http://phzh.ch"}}, {"type": "node", "id": 13176432881, "lat": 46.0117774, "lon": 8.9613845, "tags": {"addr:city": "Viganello", "addr:housenumber": "1", "addr:postcode": "6900", "addr:street": "Via La Santa", "amenity": "university", "description": "Universit\u00e0 della Svizzera italiana (USI), Facolt\u00e0 di scienze informatiche\nPiano 0: Dean's Office, Classrooms D0.xx\nPiano 1: Classrooms D1.xx (shared with SUPSI DTI)\nPiano 2-5: USI INF Research Institutes & Labs", "name": "USI INF", "website": "https://www.inf.usi.ch/"}}, {"type": "node", "id": 13196430401, "lat": 46.2024362, "lon": 6.1407548, "tags": {"addr:housenumber": "2", "addr:postcode": "1204", "addr:street": "Rue du G\u00e9n\u00e9ral-Dufour", "amenity": "university", "name": "Haute Ecole de Musique de Gen\u00e8ve - HEMGE", "website": "http://hesge.ch"}}, {"type": "node", "id": 13291056605, "lat": 46.0276456, "lon": 8.9362679, "tags": {"addr:city": "Vezia", "addr:housenumber": "1", "addr:postcode": "6943", "addr:street": "Via Morosini", "amenity": "university", "contact:email": "info@csvn.ch", "contact:phone": "+41 91 967 42 64", "fixme": "correggere tag", "name": "Centro di Studi Bancari di Villa Negroni", "opening_hours": "Mo-Fr 08:30-17:30; Sa,Su closed; PH off", "operator:type": "private", "school:gender": "mixed", "website": "https://csvn.ch/", "wheelchair": "limited"}}, {"type": "node", "id": 13338645777, "lat": 46.9522081, "lon": 7.4280171, "tags": {"amenity": "university", "email": "admin.iee@unibe.ch", "name": "Institute of Ecology and Evolution", "operator": "Uni Bern", "phone": "+41 31 684 45 11", "website": "https://www.iee.unibe.ch/"}}, {"type": "node", "id": 13340610978, "lat": 47.240665, "lon": 6.0227844, "tags": {"amenity": "university", "name": "Universit\u00e9 Marie et Louis Pasteur", "ref:UAI": "0252044L", "short_name": "UFC", "source": "Onisep - Id\u00e9o-Structures d'enseignement sup\u00e9rieur - 07/2025"}}, {"type": "node", "id": 13390636849, "lat": 45.8413749, "lon": 6.2119663, "tags": {"amenity": "university", "education": "university", "name": "Tufts University European Center", "website": "https://europeancenter.tufts.edu/"}}, {"type": "node", "id": 13452416638, "lat": 46.2091792, "lon": 6.282112, "tags": {"addr:city": "Ville-la-Grand", "addr:housenumber": "16", "addr:postcode": "74100", "addr:street": "Rue des Chasseurs", "amenity": "university", "education": "university", "email": "grand-geneve@ihecf.fr", "internet_access": "wlan", "internet_access:fee": "customers", "name": "IHECF Grand Gen\u00e8ve", "opening_hours": "Mo-Fr 09:00-17:00", "operator": "Eduservices", "operator:type": "private", "phone": "+33 4 28 27 08 00", "website": "https://www.ihecf.fr/ecole-comptabilite-geneve", "wheelchair": "yes"}}, {"type": "node", "id": 13467999165, "lat": 45.8907943, "lon": 6.1195484, "tags": {"addr:city": "Annecy", "addr:housenumber": "42", "addr:postcode": "74000", "addr:street": "Chemin de la Prairie", "amenity": "university", "education": "university", "email": "annecy@mbway.com", "internet_access": "yes", "internet_access:fee": "customers", "name": "MBway Annecy", "opening_hours": "Mo-Fr 08:00-17:00", "operator": "Eduservices SAS", "operator:type": "private", "phone": "+33 4 50 45 13 91", "website": "https://www.mbway.com/mba-annecy", "wheelchair": "yes"}}, {"type": "node", "id": 13468238513, "lat": 46.1968999, "lon": 6.2324212, "tags": {"addr:city": "Annemasse", "addr:housenumber": "15", "addr:postcode": "74100", "addr:street": "avenue Emile Zola", "amenity": "university", "education": "university", "email": "grand-geneve@mbway.com", "internet_access": "yes", "internet_access:fee": "customers", "name": "MBway Grand Gen\u00e8ve", "opening_hours": "Mo-Fr 08:00-18:00", "operator": "Eduservices SAS", "operator:type": "private", "phone": "+33 4 58 02 01 40", "website": "https://www.mbway.com/mba-geneve", "wheelchair": "yes"}}, {"type": "node", "id": 13509391956, "lat": 47.7479834, "lon": 7.3020338, "tags": {"addr:city": "Mulhouse", "addr:housenumber": "14", "addr:postcode": "68200", "addr:street": "Rue Gustave Hirn", "amenity": "university", "education": "university", "email": "mulhouse@pigier.com", "internet_access": "yes", "internet_access:fee": "customers", "name": "Pigier Mulhouse", "opening_hours": "Mo-Fr 08:00-18:00", "operator": "Eduservices SAS", "operator:type": "private", "phone": "+33 3 89 66 09 01", "website": "https://www.pigier.com/ecole-commerce-mulhouse", "wheelchair": "yes"}}, {"type": "node", "id": 13511899864, "lat": 46.2196281, "lon": 6.1045312, "tags": {"addr:city": "Gen\u00e8ve", "addr:housenumber": "72", "addr:postcode": "1219", "addr:street": "Avenue de l'Etang", "amenity": "university", "education": "university", "email": "geneve@eoletunon.com", "internet_access": "yes", "internet_access:fee": "customers", "name": "\u00c9cole International Tunon", "opening_hours": "Mo-Fr 09:00-17:00", "operator": "Eduservices", "operator:type": "private", "phone": "+41 22 732 83 20", "website": "https://www.ecole-tunon.com/ecole-tourisme-geneve"}}, {"type": "node", "id": 13519907587, "lat": 47.374482, "lon": 8.5521473, "tags": {"addr:city": "Z\u00fcrich", "addr:housenumber": "10", "addr:postcode": "8032", "addr:street": "Plattenstrasse", "amenity": "university", "education": "university", "name": "UZH-PLA", "operator": "UZH", "operator:type": "university"}}, {"type": "node", "id": 13606740702, "lat": 47.397866, "lon": 8.550513, "tags": {"addr:housenumber": "190", "addr:postcode": "8057", "addr:street": "Winterthurerstrasse", "amenity": "university", "internet_access": "wlan", "name": "Physik-Institut", "opening_hours": "Mo-Fr 08:00-17:30", "website": "https://www.physik.uzh.ch/en"}}, {"type": "node", "id": 13613127098, "lat": 46.1766863, "lon": 6.1397758, "tags": {"addr:city": "Carouge GE", "addr:country": "CH", "addr:housename": "Battelle B\u00e2timent A", "addr:housenumber": "7", "addr:postcode": "1227", "addr:street": "Route de Drize", "alt_name": "CUI", "amenity": "university", "contact:facebook": "https://www.facebook.com/cuiunige/", "contact:linkedin": "https://www.linkedin.com/company/cuiunige/", "contact:twitter": "https://www.x.com/newsCUI", "education": "university", "name": "Centre Universitaire d'Informatique", "operator": "Universit\u00e9 de Gen\u00e8ve", "operator:type": "public", "ref:CH-GE:REG": "1-4XH-98896", "website": "https://cui.unige.ch/", "wikidata": "Q31899131"}}, {"type": "node", "id": 13613127099, "lat": 46.1768189, "lon": 6.1395277, "tags": {"addr:city": "Carouge GE", "addr:country": "CH", "addr:housename": "Battelle B\u00e2timent A", "addr:housenumber": "7", "addr:postcode": "1227", "addr:street": "Route de Drize", "alt_name": "Centre Maurice Chalumeau en sciences des sexualit\u00e9s de l'Universit\u00e9 de Gen\u00e8ve (CMCSS)", "amenity": "university", "contact:facebook": "https://www.facebook.com/cmcss.unige", "contact:instagram": "https://www.instagram.com/cmcss_unige/", "contact:linkedin": "https://www.linkedin.com/showcase/cmcss-unige", "education": "university", "name": "Centre Maurice Chalumeau en sciences des sexualit\u00e9s", "office": "research", "operator": "Universit\u00e9 de Gen\u00e8ve", "phone": "+41 22 379 74 40", "short_name": "CMCSS", "website": "https://www.unige.ch/cmcss/"}}, {"type": "node", "id": 13613127100, "lat": 46.175022, "lon": 6.1392193, "tags": {"addr:city": "Carouge GE", "addr:country": "CH", "addr:housename": "Battelle B\u00e2timent C et E", "addr:housenumber": "2", "addr:postcode": "1227", "addr:street": "Rue de La-Tambourine", "amenity": "university", "education": "university", "name": "nexus-espace d'innovation p\u00e9dagogique", "operator": "Haute \u00e9cole de gestion de Gen\u00e8ve (HEG)", "website": "https://www.hesge.ch/heg/campus/nexus-espaces-innovation-pedagogique"}}, {"type": "node", "id": 13613154101, "lat": 46.1759074, "lon": 6.1394134, "tags": {"addr:city": "Carouge GE", "addr:country": "CH", "addr:housename": "Campus Battelle", "addr:housenumber": "17", "addr:postcode": "1227", "addr:street": "Rue de La-Tambourine", "amenity": "university", "contact:facebook": "https://www.facebook.com/heg.geneve", "contact:instagram": "https://instagram.com/heg_ge", "contact:linkedin": "https://www.linkedin.com/school/heg/", "contact:youtube": "https://www.youtube.com/user/HEGGeTube", "education": "university", "name": "Haute \u00e9cole de gestion de Gen\u00e8ve", "note": "POI principal pour la HEG \u00e0 Battelle, vers la r\u00e9ception", "operator": "HES-SO Gen\u00e8ve", "operator:ref:CH:UID": "CHE-100.600.175", "phone": "+41 22 388 17 00", "ref:CH-GE:REG": "1-4XH-10682", "short_name": "HEG Gen\u00e8ve", "website": "https://www.hesge.ch/heg/", "website:events": "https://www.hesge.ch/heg/ecole/evenements"}}, {"type": "node", "id": 13665548702, "lat": 46.8092008, "lon": 7.1586407, "tags": {"addr:housenumber": "24-26", "addr:postcode": "1700", "addr:street": "Rue de Morat", "amenity": "university", "name": "RMO 02", "name:fr": "Institut de Plurilinguisme"}}, {"type": "way", "id": 15243993, "center": {"lat": 46.199508, "lon": 6.1442708}, "nodes": [151013532, 151013533, 2291962263, 2291962260, 13577504712, 2291962254, 2291962257, 1371478448, 2291962236, 2291962233, 2291962224, 151013534, 151013535, 151013536, 151013537, 13577504711, 151013538, 151013539, 151013532], "tags": {"amenity": "university", "building": "yes", "check_date": "2024-10-14", "name": "Universit\u00e9 de Gen\u00e8ve - Uni Bastions (aile Jura)"}}, {"type": "way", "id": 23391253, "center": {"lat": 46.5187544, "lon": 6.5661742}, "nodes": [253261218, 3412346769, 763173844, 253261219, 3412346774, 9379367997, 253261220, 649303280, 649303279, 649303276, 9379367985, 411908434, 9379367998, 763173831, 411908435, 763173852, 264852429, 763173823, 263316806, 763173842, 264852430, 8675401652, 12956328175, 264852432, 763173828, 649303022, 649303023, 649303025, 253261210, 649303027, 649303005, 649302828, 649302826, 264852425, 253261212, 763173833, 763173850, 415913788, 649891015, 649891011, 649891010, 649891008, 253261213, 580654785, 415913789, 9820779624, 9820779623, 4474732994, 264852426, 4474732995, 253261214, 763173856, 9820784380, 763173847, 9820784379, 9820784377, 253261216, 763171675, 763171653, 763171670, 763171647, 1239270884, 752215530, 752215465, 1755832909, 752876756, 1755832913, 1755832915, 1755832936, 761124134, 11878748059, 11878748058, 1755832942, 1755832955, 1755832957, 1755832960, 253261218], "tags": {"amenity": "university", "contact:mastodon": "@epfl@social.epfl.ch", "contact:website": "https://www.epfl.ch/", "education": "university", "internet_access": "yes", "internet_access:ssid": "eduroam", "name": "\u00c9cole Polytechnique F\u00e9d\u00e9rale de Lausanne", "name:zh": "\u6d1b\u6851\u8054\u90a6\u7406\u5de5\u5b66\u9662", "short_name": "EPFL", "wikidata": "Q262760", "wikipedia": "fr:\u00c9cole polytechnique f\u00e9d\u00e9rale de Lausanne"}}, {"type": "way", "id": 24479991, "center": {"lat": 47.8146768, "lon": 9.6543666}, "nodes": [266161515, 266161516, 266161517, 266161518, 266161519, 13695440522, 266161520, 266161521, 266161522, 266161523, 266161530, 266161532, 266161533, 266161534, 266161535, 266161515], "tags": {"addr:housenumber": "7", "addr:street": "Doggenriedstra\u00dfe", "amenity": "university", "building": "yes", "name": "Sportzentrum PH-Weingarten", "name:en": "Sports Ground PH-Weingarten", "operator": "P\u00e4dagogische Hochschule Weingarten"}}, {"type": "way", "id": 24479992, "center": {"lat": 47.8143648, "lon": 9.6532085}, "nodes": [266161536, 266161537, 266161538, 6780016267, 6780016266, 266161539, 6015797374, 266161588, 266161541, 266161542, 266161543, 266161544, 266161545, 266161546, 6015797375, 266161547, 266161548, 2055343591, 2055343592, 266161549, 266161550, 266161551, 266161536], "tags": {"addr:city": "Weingarten", "addr:country": "DE", "addr:housenumber": "70", "addr:postcode": "88250", "addr:street": "Doggenriedstra\u00dfe", "amenity": "university", "building": "university", "building:levels": "2", "internet_access": "wlan", "internet_access:fee": "no", "name": "RWU Hochschule Ravensburg-Weingarten", "operator": "Staatliche Hochschule f\u00fcr angewandte Wissenschaften", "operator:type": "university", "website": "https://www.rwu.de/"}}, {"type": "way", "id": 24497732, "center": {"lat": 47.8126778, "lon": 9.6552064}, "nodes": [266383777, 4168386932, 4168386933, 4168386930, 4168386931, 266383778, 266383779, 13695440511, 266383780, 4168386940, 266383777], "tags": {"addr:city": "Weingarten", "addr:country": "DE", "addr:housenumber": "12", "addr:postcode": "88250", "addr:street": "Leibnizstra\u00dfe", "amenity": "university", "building": "university", "building:colour": "white", "check_date": "2024-04-24", "internet_access": "wlan", "internet_access:fee": "no", "name": "Geb\u00e4ude B - RWU Hochschule Ravensburg-Weingarten", "name:en": "Building B - RWU Ravensburg-Weingarten University", "operator": "Staatliche Hochschule f\u00fcr angewandte Wissenschaften", "operator:type": "university", "website": "https://www.rwu.de/"}}, {"type": "way", "id": 24497733, "center": {"lat": 47.8128937, "lon": 9.6547225}, "nodes": [266383781, 4168386921, 266383782, 266383783, 4168386906, 4168386905, 4168386908, 4168386907, 266383787, 4168386946, 266383781], "tags": {"addr:city": "Weingarten", "addr:country": "DE", "addr:housenumber": "10", "addr:postcode": "88250", "addr:street": "Leibnizstra\u00dfe", "amenity": "university", "building": "university", "building:colour": "white", "check_date": "2024-10-24", "internet_access": "wlan", "internet_access:fee": "no", "name": "Geb\u00e4ude A - RWU Hochschule Ravensburg-Weingarten", "name:en": "Building A - RWU Ravensburg-Weingarten University", "operator": "Staatliche Hochschule f\u00fcr angewandte Wissenschaften", "operator:type": "university", "website": "https://www.rwu.de/"}}, {"type": "way", "id": 24497735, "center": {"lat": 47.8130337, "lon": 9.656697}, "nodes": [266383792, 266383793, 7435755368, 266383794, 266383795, 266383796, 266383797, 266383792], "tags": {"addr:city": "Weingarten", "addr:country": "DE", "addr:housenumber": "9", "addr:postcode": "88250", "addr:street": "Leibnizstra\u00dfe", "amenity": "university", "building": "university", "check_date": "2024-04-24", "internet_access": "wlan", "internet_access:fee": "no", "name": "Geb\u00e4ude D - RWU Hochschule Ravensburg-Weingarten", "name:en": "Building D - RWU Ravensburg-Weingarten University", "operator": "Staatliche Hochschule f\u00fcr angewandte Wissenschaften", "operator:type": "university", "website": "https://www.rwu.de/"}}, {"type": "way", "id": 24497736, "center": {"lat": 47.8124447, "lon": 9.6558649}, "nodes": [266383798, 4168386929, 266383799, 13695440509, 266383800, 4168386952, 266383801, 4168386954, 266383802, 266383803, 266383804, 266383805, 266383798], "tags": {"addr:city": "Weingarten", "addr:country": "DE", "addr:housenumber": "11", "addr:postcode": "88250", "addr:street": "Leibnizstra\u00dfe", "amenity": "university", "building": "university", "check_date": "2026-01-27", "internet_access": "wlan", "internet_access:fee": "no", "max_level": "2", "min_level": "-1", "name": "Geb\u00e4ude C - RWU Hochschule Ravensburg-Weingarten", "name:en": "Building C - RWU Ravensburg-Weingarten University", "operator": "Staatliche Hochschule f\u00fcr angewandte Wissenschaften", "operator:type": "university", "website": "https://www.rwu.de/"}}, {"type": "way", "id": 24497737, "center": {"lat": 47.8137793, "lon": 9.6552589}, "nodes": [266383806, 2055343588, 2055343589, 266383807, 266383808, 13695440535, 2055343587, 2055343585, 266383809, 266383806], "tags": {"addr:city": "Weingarten", "addr:country": "DE", "addr:housenumber": "3", "addr:postcode": "88250", "addr:street": "Leibnizstra\u00dfe", "amenity": "university", "building": "university", "building:colour": "beige", "check_date": "2024-10-24", "name": "W-Geb\u00e4ude", "name:de": "W Building"}}, {"type": "way", "id": 24498073, "center": {"lat": 47.8128375, "lon": 9.6516092}, "nodes": [266386877, 266386925, 4168386854, 4168386855, 266386880, 266386879, 9633814704, 9633814703, 266386878, 266386929, 4168386857, 4168386856, 4168386858, 4168386859, 4168386861, 266386877], "tags": {"addr:city": "Weingarten", "addr:country": "DE", "addr:housenumber": "42", "addr:postcode": "88250", "addr:street": "Doggenriedstra\u00dfe", "amenity": "university", "building": "university", "check_date": "2026-01-27", "internet_access": "wlan", "internet_access:fee": "no", "max_level": "1", "name": "T-Geb\u00e4ude", "name:en": "T Building", "website": "https://www.rwu.de/"}}, {"type": "way", "id": 24498074, "center": {"lat": 47.8131056, "lon": 9.6512716}, "nodes": [266386881, 266386890, 4168386868, 266386889, 266386888, 266386887, 266386886, 266386885, 266386884, 4168386862, 4168386863, 266386931, 266386883, 266386882, 266386881], "tags": {"addr:city": "Weingarten", "addr:country": "DE", "addr:housenumber": "40", "addr:postcode": "88250", "addr:street": "Doggenriedstra\u00dfe", "amenity": "university", "building": "university", "check_date": "2026-04-05", "internet_access": "wlan", "internet_access:fee": "no", "name": "Geb\u00e4ude L - RWU Hochschule Ravensburg-Weingarten", "name:en": "Building L - RWU Ravensburg-Weingarten University", "operator": "Staatliche Hochschule f\u00fcr angewandte Wissenschaften", "website": "https://www.rwu.de/"}}, {"type": "way", "id": 24498075, "center": {"lat": 47.8127668, "lon": 9.6507186}, "nodes": [266386893, 9633814686, 9633814685, 9633814684, 4168386849, 4168386842, 4168386843, 266386895, 12293785549, 266386894, 266386893], "tags": {"addr:city": "Weingarten", "addr:housenumber": "38", "addr:postcode": "88250", "addr:street": "Doggenriedstra\u00dfe", "amenity": "university", "building": "university", "check_date": "2026-01-27", "internet_access": "wlan", "internet_access:fee": "no", "max_level": "1", "name": "K-Geb\u00e4ude", "name:en": "K Building", "website": "https://www.rwu.de/"}}, {"type": "way", "id": 24504062, "center": {"lat": 47.8081583, "lon": 9.6461752}, "nodes": [266486536, 2055342664, 2055342658, 5863472167, 5863472166, 2055342643, 2055342644, 266486537, 2055342739, 2055342741, 2055342748, 2055342744, 266486539, 2055342792, 2055342797, 5863472164, 2562564915, 266486540, 266486541, 266486542, 5054981609, 2562564899, 266486543, 266486544, 5054981610, 266486545, 5863472163, 5863472162, 5863472161, 266486546, 5863472160, 5863472176, 5863472175, 266486547, 5863472174, 5863484708, 5863472173, 5863472172, 5863472171, 266486548, 5863472170, 266486549, 266486550, 266486551, 5863472169, 5863472168, 266486552, 2055342764, 2055342767, 266486536], "tags": {"addr:city": "Weingarten", "addr:housenumber": "14", "addr:postcode": "88250", "addr:street": "Kirchplatz", "amenity": "university", "building": "yes", "name:de": "Naturwissenschaftliches Zentrum", "name:en": "NZ Building", "wheelchair": "limited"}}, {"type": "way", "id": 24504065, "center": {"lat": 47.8096459, "lon": 9.6446701}, "nodes": [266486559, 5863472142, 2255723861, 1605898900, 2255789057, 1605898915, 1605898913, 266486565, 1605898928, 1605898924, 1605898917, 1605898927, 266486567, 1605898912, 1605898911, 266486576, 2255789056, 5155953935, 4937987687, 5155953793, 2079026932, 266486568, 2255789060, 266486570, 2255789071, 266486571, 2255789067, 1605898896, 6448658994, 6448658993, 6448658992, 266486572, 266486559], "tags": {"addr:city": "Weingarten", "addr:housenumber": "2", "addr:postcode": "88250", "addr:street": "Kirchplatz", "amenity": "university", "building": "yes", "historic": "monastery", "name": "P\u00e4dagogische Hochschule", "toilets:wheelchair": "yes", "wheelchair": "yes", "wikidata": "Q2120222"}}, {"type": "way", "id": 25844806, "center": {"lat": 46.5225409, "lon": 6.5798054}, "nodes": [281899251, 281899257, 310666150, 310666343, 649898171, 649898170, 281899252, 310666345, 310666344, 649749317, 415913758, 649749311, 649749308, 649749306, 310666149, 649749071, 649749266, 281899253, 649749210, 649749243, 416519728, 649749230, 649749231, 649749155, 649749156, 649749153, 416519726, 2489867975, 414585078, 281899254, 416519729, 416519730, 1636694092, 414585079, 253262132, 649748774, 649748772, 649748770, 281899259, 364061705, 313148232, 281899255, 280102901, 649303297, 649303300, 649303299, 281899245, 5075840871, 835836172, 281899246, 415280056, 3412346770, 835835510, 835836231, 281899249, 1755832962, 1755832983, 1755832996, 1755832998, 1755833001, 11198493098, 11198493097, 1755833003, 8597220465, 8597220466, 8597220467, 11878764018, 8597220468, 11878764019, 8597220469, 8597220470, 281899250, 281899256, 6077015221, 414585077, 414585076, 414609575, 281899260, 414609574, 297574244, 416127132, 9877446181, 281899261, 9877446180, 297574246, 281899262, 367995126, 6077015222, 281899251], "tags": {"alt_name": "UNIL", "amenity": "university", "name": "Universit\u00e9 de Lausanne", "name:de": "Universit\u00e4t Lausanne", "name:en": "University of Lausanne", "name:fr": "Universit\u00e9 de Lausanne", "name:it": "Universit\u00e0 di Losanna", "name:ru": "\u041b\u043e\u0437\u0430\u043d\u043d\u0441\u043a\u0438\u0439 \u0443\u043d\u0438\u0432\u0435\u0440\u0441\u0438\u0442\u0435\u0442", "website": "https://www.unil.ch/", "wheelchair": "yes", "wikidata": "Q658975", "wikipedia": "fr:Universit\u00e9 de Lausanne"}}, {"type": "way", "id": 26711075, "center": {"lat": 46.8064103, "lon": 7.1523142}, "nodes": [5373733770, 1347657212, 1359773696, 1359773699, 1347657149, 292949618, 1347657134, 1347657160, 292949619, 10685502896, 10685502897, 292949620, 5329032883, 2527809349, 10049712373, 5329032884, 5373733770], "tags": {"amenity": "university", "name": "Universit\u00e9 de Fribourg Mis\u00e9ricorde", "name:de": "Universit\u00e4t Freiburg - Mis\u00e9ricorde", "name:hr": "Sveu\u010dili\u0161te u Fribourgu - Misericorde"}}, {"type": "way", "id": 26878618, "center": {"lat": 47.6899784, "lon": 9.1884153}, "nodes": [264545731, 1350687658, 1490782481, 264545732, 1485172043, 264545733, 1485172058, 264545734, 1485172064, 315097793, 1490809044, 264545735, 1485172068, 264545738, 264545740, 1350687664, 264545742, 1484646704, 1350687656, 264545744, 6372813047, 264545749, 6286994898, 1484646705, 1484646706, 1350687649, 264545751, 1485172075, 8357253331, 1020640855, 1485172076, 1490855401, 1020640852, 1485185992, 382234611, 2788154548, 1485185995, 382234609, 1485185996, 1485185997, 382234593, 382234590, 11729832108, 11729832109, 863626746, 599625185, 11729832112, 1485016965, 872721802, 1485026959, 294945489, 10919435844, 294945480, 872721946, 1484700514, 1485016822, 1490833699, 6019852075, 1485016816, 1490833698, 1485016812, 1490833696, 1485016809, 13363209317, 264545725, 1485016785, 13575802223, 264545726, 264545727, 264545728, 1485016771, 264545730, 1350687671, 264545731], "tags": {"addr:city": "Konstanz", "addr:country": "DE", "addr:housenumber": "10", "addr:postcode": "78464", "addr:street": "Universit\u00e4tsstra\u00dfe", "addr:suburb": "Egg", "amenity": "university", "contact:email": "kum@uni-konstanz.de", "contact:facebook": "https://www.facebook.com/unikonstanz/", "contact:fax": "+49 7531 883688", "contact:instagram": "unikonstanz", "contact:phone": "+49 7531 880", "contact:twitter": "unikonstanz", "contact:website": "https://www.uni-konstanz.de/", "education": "university", "name": "Universit\u00e4t Konstanz", "name:en": "University of Konstanz", "name:fr": "Universit\u00e9 de Constance", "name:ru": "\u041a\u043e\u043d\u0441\u0442\u0430\u043d\u0446\u0441\u043a\u0438\u0439 \u0443\u043d\u0438\u0432\u0435\u0440\u0441\u0438\u0442\u0435\u0442", "toilets:wheelchair": "yes", "wheelchair": "limited", "wikidata": "Q835440", "wikipedia": "de:Universit\u00e4t Konstanz"}}, {"type": "way", "id": 27327908, "center": {"lat": 47.3725708, "lon": 8.5510949}, "nodes": [299983627, 2814993615, 1377321578, 299983628, 299983629, 299983630, 2814993597, 2814993603, 11887035492, 11887035493, 11887027071, 11237815091, 11887027070, 11887035494, 11887035491, 2814993609, 2814993608, 299983627], "tags": {"addr:city": "Z\u00fcrich", "addr:country": "CH", "addr:housename": "UZH-ZUB", "addr:housenumber": "4", "addr:street": "Z\u00fcrichbergstrasse", "amenity": "university", "building": "yes", "name": "Asien-Orient-Institut", "source": "Stadt Z\u00fcrich Open Government Data; Geomatik + Vermessung; Tiefbau- und Entsorgungsdepartement"}}, {"type": "way", "id": 27327914, "center": {"lat": 47.3728243, "lon": 8.5513711}, "nodes": [299983678, 299983679, 11887035469, 11887013868, 11887013865, 11887013866, 11887013867, 11887035470, 299983680, 299983681, 11887013863, 11887013862, 11887013861, 11887013864, 11887035474, 11887035472, 11887035471, 11887035473, 11887013859, 11887013858, 11887013857, 11887013860, 299983678], "tags": {"addr:city": "Z\u00fcrich", "addr:country": "CH", "addr:housename": "UZH-ZUG", "addr:housenumber": "8", "addr:street": "Z\u00fcrichbergstrasse", "amenity": "university", "building": "yes", "name": "Romanisches Seminar", "source": "Stadt Z\u00fcrich Open Government Data; Geomatik + Vermessung; Tiefbau- und Entsorgungsdepartement"}}, {"type": "way", "id": 27338095, "center": {"lat": 47.3714688, "lon": 8.5485765}, "nodes": [300112667, 13440166517, 13440166509, 13440166522, 13440166514, 300112668, 300112669, 300112670, 3210314705, 300112667], "tags": {"addr:city": "Z\u00fcrich", "addr:country": "CH", "addr:housename": "UZH-KAB", "addr:housenumber": "3", "addr:postcode": "8001", "addr:street": "Kantonsschulstrasse", "amenity": "university", "building": "yes", "description": "Institut f\u00fcr Erziehungswissenschaft", "name": "Institut f\u00fcr Erziehungswissenschaft", "toilets:wheelchair": "yes", "wheelchair": "limited"}}, {"type": "way", "id": 27657121, "center": {"lat": 47.8109854, "lon": 9.6488216}, "nodes": [303760568, 303760564, 303760565, 303760562, 303760563, 303760566, 303760567, 12293514813, 303760569, 303760568], "tags": {"addr:city": "Weingarten", "addr:housenumber": "1", "addr:postcode": "88250", "addr:street": "Lazarettstra\u00dfe", "amenity": "university", "building": "university", "building:levels": "3", "check_date": "2026-01-20", "ebusinesslotse": "yes", "ebusinesslotse:note": "Mittelstand-Digital, gef\u00f6rdert vom BMWI", "ebusinesslotse:url": "http://www.ebusiness-lotse-oberschwaben-ulm.de", "internet_access": "wlan", "internet_access:fee": "no", "name": "V-Geb\u00e4ude", "name:en": "V Building", "office": "yes", "roof:levels": "1", "roof:shape": "hipped", "url": "http://www.hs-weingarten.de", "website": "https://www.rwu.de/"}}, {"type": "way", "id": 27657123, "center": {"lat": 47.8105752, "lon": 9.6497223}, "nodes": [303760577, 303760570, 303760571, 303760574, 303760575, 303760576, 303760573, 12293514809, 303760572, 303760577], "tags": {"addr:housenumber": "5", "addr:street": "Lazarettstra\u00dfe", "amenity": "university", "building": "university", "building:levels": "3", "check_date": "2024-03-11", "internet_access": "wlan", "internet_access:fee": "no", "name": "M-Geb\u00e4ude", "name:en": "M Building", "operator": "PH Weingaraten (EG) und RWU (1. und 2. OG)", "operator:type": "university", "roof:levels": "1", "roof:shape": "hipped", "website": "https://www.rwu.de/"}}, {"type": "way", "id": 27657124, "center": {"lat": 47.810816, "lon": 9.6493103}, "nodes": [303760581, 3100943926, 3100943927, 12293514807, 3100948334, 303760579, 303760580, 303760581], "tags": {"addr:housenumber": "3", "addr:street": "Lazarettstra\u00dfe", "amenity": "university", "building": "university", "building:levels": "2", "check_date": "2024-03-17", "internet_access": "wlan", "internet_access:fee": "no", "name": "P-Geb\u00e4ude", "name:en": "P Building", "operator": "RWU und PH Weingarten", "operator:type": "university", "website": "https://www.rwu.de/"}}, {"type": "way", "id": 28277895, "center": {"lat": 47.6421134, "lon": 6.8450312}, "nodes": [5486882929, 10007000955, 10007000954, 10007000952, 10007000953, 10007000951, 10007000950, 10007000949, 10007000948, 5432294617, 310527414, 5432295121, 5432294618, 982682669, 982682665, 5670123642, 5670123640, 5489310198, 5489310199, 310527415, 5670123641, 5489310193, 5691821008, 5489310200, 5691821045, 5670131153, 5691821071, 5486882265, 924469831, 924461467, 310527417, 5486882280, 5486882275, 5486882281, 924474316, 924464771, 5486882269, 5486882267, 5486882272, 310527418, 1469851396, 10007000965, 10007000966, 10007000963, 10007000958, 10007000959, 10007000960, 10007000961, 10007000962, 10007000964, 10007000956, 10007000957, 930966334, 930988724, 5486882542, 5486882541, 5486882540, 5670131170, 930952756, 930992860, 930936056, 930994399, 10300479734, 10300479738, 10300479733, 10300479737, 5486882929], "tags": {"addr:city": "Belfort", "addr:postcode": "90000", "addr:street": "Rue Thierry Mieg", "amenity": "university", "name": "Universit\u00e9 de Technologie de Belfort-Montb\u00e9liard - Campus de Belfort", "operator": "Universit\u00e9 de Technologie de Belfort-Montb\u00e9liard", "ref:UAI": "0900424X", "short_name": "UTBM"}}, {"type": "way", "id": 28367342, "center": {"lat": 47.4083109, "lon": 8.508406}, "nodes": [6374819631, 6374819632, 6374819633, 6374819634, 6374819635, 6374819636, 6374819643, 6374819618, 6374819617, 6374819644, 6374819616, 6374819645, 6374819615, 6374819614, 6374819646, 6374819613, 6374819605, 6374819606, 6374819607, 29353787, 5320200730, 433193525, 6373250611, 6373250610, 6373250607, 6373250608, 6373250609, 433193523, 433193521, 6374806605, 6374806606, 5320200724, 6374806607, 5320200725, 6374806608, 12112652512, 12112652514, 12112652513, 12112648140, 6374752747, 5320200723, 12112652510, 12112652509, 5320200722, 12112652508, 5320200721, 6374754102, 12112652507, 5320200120, 5320200118, 12112648184, 5320200117, 12112648183, 6374754101, 12112648182, 6374754100, 12112648181, 12112648179, 6374754099, 12112648180, 5320200116, 12112648178, 6374754098, 12112648177, 6374754097, 12112648176, 6374752748, 12112648172, 6374754095, 5320200119, 12112648174, 6374754094, 5320200115, 6374754093, 12112648161, 5320200114, 6374754092, 6374754091, 6374754090, 5320200754, 3239345342, 8418564233, 6379721742, 5320200112, 433193414, 5320200753, 2611901157, 2611901158, 6374806667, 6374806666, 3239345340, 6374806646, 6374806645, 433193416, 6374806644, 6374806643, 311563311, 12112238385, 3249076432, 433193420, 6374806642, 433193422, 311563285, 6374806641, 433193424, 6374806640, 3249076433, 6374806639, 29382317, 3249076434, 6328160966, 433193426, 433193428, 5320200755, 12073540591, 6374806637, 6374806635, 6374806634, 12073540592, 6374806636, 311563287, 12112238382, 12073540594, 10300251359, 12073540593, 433193552, 3249076400, 433193556, 12073540673, 12073540674, 3486585606, 3486585598, 3486585596, 5320200756, 5320200757, 8109583750, 12073540692, 12073540693, 12073540694, 12073540698, 3249076417, 5320200748, 5320200749, 5320200747, 5320200746, 5320200745, 5320200744, 5320200743, 5320200742, 5320200741, 6374832758, 6374819626, 6374819627, 6374819628, 5320200740, 6374819630, 6374819631], "tags": {"addr:city": "Z\u00fcrich", "addr:postcode": "8093", "alt_name": "Campus H\u00f6nggerberg", "amenity": "university", "education": "university", "name": "ETH Z\u00fcrich, H\u00f6nggerberg", "name:tr": "Z\u00fcrih Federal Teknoloji Enstit\u00fcs\u00fc", "operator": "Schweizerische Eidgenossenschaft, WBF, ETH-Bereich", "website": "https://www.ethz.ch/", "wikidata": "Q11942", "wikipedia": "de:ETH Z\u00fcrich"}}, {"type": "way", "id": 28899901, "center": {"lat": 47.4846998, "lon": 8.1981654}, "nodes": [317663811, 418498413, 2459673838, 317663813, 418498412, 418498411, 418498410, 317663815, 2459673869, 418498419, 317663816, 418498418, 418498417, 418498416, 418498415, 418498414, 317663811], "tags": {"amenity": "university", "building": "yes", "ele": "352", "name": "Berufsfachschule Gesundheit und Soziales"}}, {"type": "way", "id": 28899903, "center": {"lat": 47.4851841, "lon": 8.1986906}, "nodes": [317663819, 317663820, 13131647582, 13131647573, 13131677937, 317663821, 13131677931, 317663823, 2459673941, 2459673945, 2459673943, 2459673934, 317663819], "tags": {"addr:city": "Brugg AG", "addr:housenumber": "43", "addr:postcode": "5200", "addr:street": "Baslerstrasse", "amenity": "university", "building": "yes", "name": "Berufsfachschule Gesundheit und Soziales"}}, {"type": "way", "id": 29146412, "center": {"lat": 47.138239, "lon": 7.2135292}, "nodes": [320617121, 320617123, 2043178480, 320617124, 320617125, 320617121], "tags": {"amenity": "university", "building:levels": "4", "building:part": "yes", "name": "Eidgen\u00f6ssische Hochschule f\u00fcr Sport Magglingen EHSM", "name:fr": "Haute \u00e9cole f\u00e9d\u00e9rale de sport Macolin HEFSM", "roof:shape": "flat"}}, {"type": "way", "id": 29232096, "center": {"lat": 47.371666, "lon": 8.550828}, "nodes": [321525602, 2814993511, 321525603, 1377321568, 1377321569, 1377321435, 1377321460, 321525604, 1377321607, 1377321625, 1377321560, 1377321563, 321525605, 321525602], "tags": {"addr:city": "Z\u00fcrich", "addr:country": "CH", "addr:housename": "UZH-RAE", "addr:housenumber": "64", "addr:postcode": "8032", "addr:street": "R\u00e4mistrasse", "amenity": "university", "building": "yes", "source": "Stadt Z\u00fcrich Open Government Data; Geomatik + Vermessung; Tiefbau- und Entsorgungsdepartement"}}, {"type": "way", "id": 29232102, "center": {"lat": 47.3719882, "lon": 8.5511773}, "nodes": [3440824826, 11887013855, 11887013856, 321525682, 2814993537, 2814993538, 2814993543, 2814993544, 321525683, 2814993549, 2814993552, 2814993554, 2814993551, 321525680, 321525681, 3440824827, 3440824825, 3440824826], "tags": {"addr:city": "Z\u00fcrich", "addr:country": "CH", "addr:housename": "UZH-RAG", "addr:housenumber": "68", "addr:postcode": "8001", "addr:street": "R\u00e4mistrasse", "amenity": "university", "building": "yes", "source": "Stadt Z\u00fcrich Open Government Data; Geomatik + Vermessung; Tiefbau- und Entsorgungsdepartement"}}, {"type": "way", "id": 30296204, "center": {"lat": 47.3020051, "lon": 8.5526842}, "nodes": [334033465, 334088828, 334088823, 3829052559, 3829052575, 3829052574, 63770500, 3829052573, 334033466, 3829052564, 334033470, 334088836, 334088834, 334033476, 334033465], "tags": {"amenity": "university", "building": "yes", "name": "Gottlieb-Duttweiler-Institut", "url": "http://www.gdi.ch", "wheelchair": "limited", "wikidata": "Q685608", "wikipedia": "de:Gottlieb Duttweiler Institut"}}, {"type": "way", "id": 31264369, "center": {"lat": 47.8120954, "lon": 9.6540319}, "nodes": [347652452, 13695440514, 347652460, 347652466, 347652472, 347652478, 347652483, 347652490, 347652495, 13695440513, 347652452], "tags": {"addr:city": "Weingarten", "addr:country": "DE", "addr:housenumber": "20", "addr:postcode": "88250", "addr:street": "Leibnizstra\u00dfe", "amenity": "university", "building": "yes", "check_date": "2024-09-10", "internet_access": "wlan", "internet_access:fee": "no", "name": "Geb\u00e4ude G - RWU Hochschule Ravensburg-Weingarten", "name:en": "Building G - RWU Ravensburg-Weingarten University", "operator": "Staatliche Hochschule f\u00fcr angewandte Wissenschaften", "operator:type": "university", "source": "Bing, 2012-12", "website": "https://www.rwu.de/"}}, {"type": "way", "id": 31264372, "center": {"lat": 47.8117289, "lon": 9.6550748}, "nodes": [347652549, 13695440528, 347652558, 347652567, 347652575, 347652549], "tags": {"addr:city": "Weingarten", "addr:country": "DE", "addr:housenumber": "15", "addr:postcode": "88250", "addr:street": "Leibnizstra\u00dfe", "amenity": "university", "building": "university", "check_date": "2024-04-24", "internet_access": "wlan", "internet_access:fee": "no", "name": "Geb\u00e4ude E - RWU Hochschule Ravensburg-Weingarten", "name:en": "Building E - RWU Ravensburg-Weingarten University", "operator": "Staatliche Hochschule f\u00fcr angewandte Wissenschaften", "operator:type": "university", "source": "Bing, 2012-12", "website": "https://www.rwu.de/"}}, {"type": "way", "id": 32402023, "center": {"lat": 47.7303081, "lon": 7.3010699}, "nodes": [364522614, 364527163, 364681894, 364522632, 2775715227, 2775749639, 364522638, 2624593073, 588131030, 4055984752, 4055985720, 4055985722, 364522614], "tags": {"alt_name": "I.U.T.", "amenity": "university", "name": "Institut Universitaire de Technologie", "source": "cadastre-dgi-fr source : Direction G\u00e9n\u00e9rale des Imp\u00f4ts - Cadastre;mise \u00e0 jour : 2009", "wikidata": "Q3152714", "wikipedia": "fr:Institut universitaire de technologie de Mulhouse"}}, {"type": "way", "id": 32427635, "center": {"lat": 47.6427607, "lon": 6.8392463}, "nodes": [364652524, 670641017, 670641019, 670641011, 670641009, 671466330, 670640980, 671466329, 670640978, 670640976, 670640974, 670640971, 364652525, 364652527, 364652528, 364652529, 364652530, 364652531, 364652532, 364652534, 364652535, 364652536, 670643027, 1678216135, 670646475, 670646476, 670646473, 364652537, 364652538, 364652539, 364652541, 5693515103, 364652542, 364652545, 364652546, 364652547, 12624266456, 12624197379, 671494429, 364652550, 671494394, 364651435, 670630445, 670630442, 670630443, 364652524], "tags": {"amenity": "university", "name": "Institut Universitaire de Technologie", "ref:UAI": "0900231M", "school:FR": "IUT", "short_name": "IUT", "source": "cadastre-dgi-fr source : Direction G\u00e9n\u00e9rale des Imp\u00f4ts - Cadastre ; mise \u00e0 jour : 2009", "wikidata": "Q3152675", "wikipedia": "fr:Institut universitaire de technologie de Belfort-Montb\u00e9liard"}}, {"type": "way", "id": 32428404, "center": {"lat": 47.4948572, "lon": 6.8044732}, "nodes": [364659922, 13334783255, 13334783254, 13334783253, 364659924, 3086006400, 3086006405, 3086006409, 3086006412, 3086006411, 3086006416, 364659926, 364659928, 3086023881, 3086023879, 3086023870, 3086023871, 364659922], "tags": {"amenity": "university", "check_date": "2024-09-24", "name": "UFR Sciences, techniques et gestion de l'industrie site Montb\u00e9liard", "ref:UAI": "0251821U", "short_name": "UFR STGI", "source": "Onisep - Id\u00e9o-Structures d'enseignement sup\u00e9rieur - 07/2025;cadastre-dgi-fr source : Direction G\u00e9n\u00e9rale des Imp\u00f4ts - Cadastre ;mise \u00e0 jour : 2009"}}, {"type": "way", "id": 33649214, "center": {"lat": 47.2482093, "lon": 5.9931057}, "nodes": [384935797, 384935816, 2742209830, 384935817, 384935798, 384935799, 384935800, 9768889058, 2742209995, 384935801, 2742209998, 384935802, 9768889056, 384935804, 2154607197, 384935805, 384935806, 854663448, 854581005, 10770449979, 10770449980, 384935808, 6400906565, 384935809, 996050621, 6400907889, 6400908206, 1424503369, 2154607227, 384935811, 384935812, 384935813, 384935814, 384935797], "tags": {"amenity": "university", "name": "Institut Universtaire Technologique Besan\u00e7on-Vesoul", "ref:UAI": "0251018W", "school:FR": "IUT", "short_name": "IUT-BV", "source": "cadastre-dgi-fr source : Direction G\u00e9n\u00e9rale des Imp\u00f4ts - Cadastre;mise \u00e0 jour : 2009", "website": "http://iut-bv.univ-fcomte.fr/"}}, {"type": "way", "id": 33807118, "center": {"lat": 47.3702334, "lon": 8.5578865}, "nodes": [387220331, 3441413303, 387220332, 387220333, 387220334, 1735462148, 387220331], "tags": {"addr:city": "Z\u00fcrich", "addr:country": "CH", "addr:housenumber": "10", "addr:postcode": "8032", "addr:street": "Treichlerstrasse", "amenity": "university", "building": "yes", "check_date": "2024-08-13", "institute": "Rechtwissenschaftliches Institut", "name": "Elreko Sicherheitskontrollen GmbH; Kowner Jakob AG", "name:de": "Zentrum f\u00fcr Stiftungsrecht", "name:en": "Center for Foundation Law", "name:fr": "Centre pour le droit des fondations", "name:it": "Centro per il diritto delle fondazioni", "source": "Stadt Z\u00fcrich Open Government Data; Geomatik + Vermessung; Tiefbau- und Entsorgungsdepartement", "subinstitute": "Zentrum f\u00fcr Stiftungsrecht", "url": "http://www.zentrum-stiftungsrecht.uzh.ch"}}, {"type": "way", "id": 34023875, "center": {"lat": 47.2406655, "lon": 6.0226867}, "nodes": [389911265, 389911259, 389911263, 389911241, 382659908, 389911268, 2443916658, 389911269, 2443916801, 382659915, 369318628, 2443916808, 369318625, 2443916822, 2443916827, 369318622, 382659914, 382659912, 10727642863, 10727642865, 389911238, 382659910, 389911265], "tags": {"amenity": "university", "name": "Maison de l'Universit\u00e9", "operator": "Universit\u00e9 | Universit\u00e9 de Franche-Comt\u00e9", "source": "cadastre-dgi-fr source : Direction G\u00e9n\u00e9rale des Imp\u00f4ts - Cadastre;mise \u00e0 jour : 2009", "wikidata": "Q829449", "wikipedia": "fr:Universit\u00e9 de Franche-Comt\u00e9"}}, {"type": "way", "id": 34853202, "center": {"lat": 47.7305909, "lon": 7.3113458}, "nodes": [408462762, 4698395825, 408462764, 408462766, 408462768, 1904501434, 7372995158, 1178199989, 7372995157, 408462771, 408462773, 408462775, 408462777, 408462778, 408462780, 408468057, 408462782, 408462783, 408462785, 408462788, 2775715222, 2775715239, 2775715219, 408462790, 408462792, 408462796, 9214346771, 408462797, 9214346770, 408462799, 408462800, 9214346769, 9214346768, 9214346763, 9214346761, 9214346760, 9214346759, 9214346758, 9214346757, 9214346756, 9214346755, 9214346754, 408462809, 9214346750, 408468029, 9214346746, 12389342701, 9214346745, 408462808, 9214346744, 9214346743, 9214346740, 9214346739, 9214346738, 9214346737, 408462807, 9214346736, 408462802, 9214334497, 12389342722, 1178126235, 12389342723, 9214334490, 408462811, 9214334489, 9214334488, 408462815, 408462816, 408462817, 408462762], "tags": {"amenity": "university", "contact:website": "http://www.uha.fr/", "name": "Universit\u00e9 de Haute Alsace - Campus de l'Illberg", "name:de": "Universit\u00e4t des Oberelsass - Campus Illberg", "name:en": "University of Upper Alsace - Campus Illberg", "name:fr": "Universit\u00e9 de Haute Alsace - Campus de l'Illberg", "short_name": "UHA - Campus Illberg"}}, {"type": "way", "id": 34948111, "center": {"lat": 47.2479388, "lon": 5.9896973}, "nodes": [410133502, 410133525, 6400907941, 410133505, 6400908198, 410133507, 364718501, 2517395214, 364718497, 364718495, 6181733637, 6181733638, 5324660192, 410133512, 6400908003, 2154591697, 385743282, 385743283, 385743284, 385743285, 385743286, 410133514, 6400908077, 410133516, 410133502], "tags": {"amenity": "university", "heritage": "2", "heritage:operator": "mhs", "mhs:inscription_date": "2005-08-01", "name": "Observatoire de Besan\u00e7on (OSU Theta)", "ref:UAI": "0250086H", "ref:mhs": "PA25000047", "short_name": "OSU THEA", "source": "Onisep - Id\u00e9o-Structures d'enseignement sup\u00e9rieur - 07/2025", "source:heritage": "Minist\u00e8re de la Culture - 07/2018", "wheelchair": "limited", "wikidata": "Q844282", "wikipedia": "fr:Observatoire de Besan\u00e7on"}}, {"type": "way", "id": 35540790, "center": {"lat": 46.9937836, "lon": 6.9405404}, "nodes": [416392682, 416392683, 416392685, 416392686, 416392688, 416392690, 416392691, 416392692, 416392693, 416392694, 416392696, 416392697, 416392699, 416392701, 416392703, 416392705, 416392682], "tags": {"addr:city": "Neuch\u00e2tel", "addr:housenumber": "2", "addr:postcode": "2000", "addr:street": "Rue Abram-Louis-Breguet", "amenity": "university", "building": "yes", "name": "UniNE Facult\u00e9 des sciences \u00e9conomiques", "source": "Orthophotos2006sitn50cm"}}, {"type": "way", "id": 36326956, "center": {"lat": 47.658642, "lon": 9.4338658}, "nodes": [423735093, 2312563224, 5567874293, 5567874291, 423735094, 5567874292, 423735095, 423735096, 423735097, 423735098, 423735099, 5774670183, 8653382027, 423735105, 11751639149, 423735100, 3190670265, 423735102, 2311545481, 7695668307, 7695668308, 423735104, 423735093], "tags": {"addr:city": "Friedrichshafen", "addr:country": "DE", "addr:housenumber": "20", "addr:postcode": "88045", "addr:street": "Am Seemooser Horn", "amenity": "university", "building": "university", "internet_access": "wlan", "internet_access:fee": "no", "name": "Zeppelin Universit\u00e4t", "phone": "+49754160091000", "website": "https://www.zu.de/", "wheelchair": "limited", "wikidata": "Q191426", "wikipedia": "de:Zeppelin Universit\u00e4t"}}, {"type": "way", "id": 36336649, "center": {"lat": 46.993757, "lon": 6.9424366}, "nodes": [423829604, 423829605, 423829606, 423829607, 423829604], "tags": {"addr:city": "Neuch\u00e2tel", "addr:country": "CH", "addr:housenumber": "1", "addr:postcode": "2000", "addr:street": "Espace Tilo-Frey", "amenity": "university", "building": "yes", "check_date": "2025-08-07", "name": "Aula des Jeunes Rives", "source": "Orthophotos2006sitn50cm"}}, {"type": "way", "id": 36336651, "center": {"lat": 46.9932301, "lon": 6.9421569}, "nodes": [423829613, 423829614, 423829615, 423829616, 423829617, 423829618, 423829619, 423829620, 423829621, 423829613], "tags": {"addr:city": "Neuch\u00e2tel", "addr:housenumber": "1", "addr:postcode": "2000", "addr:street": "Espace Tilo-Frey", "amenity": "university", "building": "yes", "building:levels": "3", "check_date": "2024-08-31", "name": "UniNE Facult\u00e9 des lettres et sciences humaines", "wheelchair": "yes"}}, {"type": "way", "id": 37345941, "center": {"lat": 47.3971538, "lon": 8.5497774}, "nodes": [435476525, 435476526, 11431927205, 11431927204, 11291100809, 11431927206, 11431927208, 11431927207, 11431927209, 3469271670, 3469271669, 11431927231, 3469271672, 3469271667, 126532922, 11431927211, 126538831, 11431927198, 317256743, 353279925, 3469271668, 435476711, 435476712, 11482570264, 11482570265, 435476713, 11482570267, 11482570266, 1290437153, 435476716, 11482592789, 11482592791, 11482592796, 11482570219, 11482592797, 11482592798, 1290437368, 11482592799, 1290437314, 11482570218, 4934203305, 11482570222, 4934203304, 11482570223, 4934203303, 435476725, 435476437, 11482592793, 435476438, 13609222888, 11482570220, 11482570221, 435476676, 11291083597, 11291083596, 435476677, 11291083598, 11291083599, 435476678, 435476440, 9841423456, 9841423457, 435476441, 10975996634, 435476446, 10975996631, 11434325126, 435476449, 11434325124, 11434325125, 435476382, 11434325116, 11434325115, 11434325114, 435476380, 435476377, 11434325092, 11434325091, 11434325090, 435476376, 435476375, 435476374, 11434325089, 11434325088, 11434325087, 435476463, 11435034240, 11435034241, 11435034242, 11435034243, 11435034244, 11435034245, 11435034246, 11435034247, 11434325137, 11434325142, 11434325133, 11434325136, 11434325135, 11434325134, 435476395, 435476524, 435476525], "tags": {"amenity": "university", "contact:city": "Z\u00fcrich", "contact:housenumber": "190", "contact:phone": "+41 44 634 11 11", "contact:postcode": "8057", "contact:street": "Winterthurerstrasse", "contact:website": "https://www.uzh.ch/cmsssl/de/explore/info/sites/irchel.html", "int_ref": "UZH", "name": "Universit\u00e4t Z\u00fcrich Irchel", "name:tr": "Z\u00fcrih \u00dcniversitesi, Irchel", "opening_hours": "Mo-Fr 07:00-18:00", "operator": "Universit\u00e4t Z\u00fcrich", "school:gender": "mixed", "wheelchair": "yes", "wikidata": "Q206702", "wikipedia": "de:Universit\u00e4t Z\u00fcrich"}}, {"type": "way", "id": 37812975, "center": {"lat": 46.9423683, "lon": 7.4404465}, "nodes": [443520906, 443520913, 3121829283, 6419892354, 6419892353, 6419892352, 6419892351, 6419892350, 6419892349, 6419892348, 6419892346, 3121829280, 6419892363, 6419892362, 6419892361, 6419892360, 6419892359, 6419892358, 6419892357, 6419892356, 6419892347, 3121829281, 3121829278, 6419892345, 6419892344, 443520915, 443520912, 6419892343, 443520918, 6419892342, 443520911, 6419892341, 443520916, 3121829282, 3121829279, 6419892337, 6419892340, 6419892369, 6419892368, 6419892367, 6419892366, 6419892365, 6419892364, 6419892339, 443520917, 6419892338, 443520910, 443520909, 6419892321, 6419892322, 564855115, 6419892323, 5628081449, 6419892511, 5628081448, 6419892375, 6419892502, 6419892501, 6419892500, 6419892499, 6419892383, 564854644, 564854625, 564854616, 564854573, 6419892525, 6419892527, 443520906], "tags": {"amenity": "university", "building": "yes", "name": "BFH Wirtschaft"}}, {"type": "way", "id": 37812978, "center": {"lat": 46.9416795, "lon": 7.4406752}, "nodes": [564854637, 5463087533, 5463087530, 6419892334, 5463087531, 564853818, 443520937, 6419892330, 6419892329, 443520936, 443520947, 6419892378, 564854637], "tags": {"amenity": "university", "building": "yes"}}, {"type": "way", "id": 37812979, "center": {"lat": 46.9418034, "lon": 7.440786}, "nodes": [564853818, 6419892331, 6419892336, 6419892335, 6419892332, 443520939, 443520958, 564855046, 5628081451, 443520940, 6419892326, 6419892327, 443520946, 6419892328, 5463087534, 564854637, 5463087533, 5463087532, 6419892333, 5463087531, 564853818], "tags": {"amenity": "university", "building": "yes"}}, {"type": "way", "id": 37812980, "center": {"lat": 46.9423156, "lon": 7.4412605}, "nodes": [564855077, 5628081447, 443520945, 5628081446, 564855109, 443520943, 443520942, 5628081450, 10625225777, 564855077], "tags": {"amenity": "university", "building": "yes"}}, {"type": "way", "id": 41790195, "center": {"lat": 47.0574312, "lon": 7.621501}, "nodes": [515628225, 515628226, 515628227, 515628228, 515628229, 515628230, 515628231, 515628232, 515628233, 515628234, 515628225], "tags": {"addr:city": "Burgdorf", "addr:country": "CH", "addr:housenumber": "20", "addr:postcode": "3400", "addr:street": "Pestalozzistrasse", "amenity": "university", "building": "yes", "ele": "562", "name": "B"}}, {"type": "way", "id": 41790340, "center": {"lat": 47.0572015, "lon": 7.6211085}, "nodes": [515631222, 3350587496, 3350587390, 2920533436, 515631225, 515631226, 623055220, 2811026130, 515631222], "tags": {"addr:city": "Burgdorf", "addr:housenumber": "20", "addr:postcode": "3400", "addr:street": "Pestalozzistrasse", "amenity": "university", "name": "Berner Fachhochschule - Technik und Informatik", "wheelchair": "limited"}}, {"type": "way", "id": 42139814, "center": {"lat": 47.0623346, "lon": 7.6143382}, "nodes": [524213262, 604917290, 521393957, 10994011294, 523384196, 523384204, 526327185, 523384208, 524213262], "tags": {"addr:city": "Burgdorf", "amenity": "university", "name": "Berner Fachhochschule Technik und Informatik", "operator": "BFH"}}, {"type": "way", "id": 42332680, "center": {"lat": 47.2483093, "lon": 5.9892405}, "nodes": [5324660197, 3467844236, 1060262030, 528465864, 2955529369, 2740141445, 528465841, 528465828, 3085821299, 528465852, 6387586805, 528465890, 3085821309, 528465886, 3085821311, 6387586710, 528465941, 2668901585, 528465926, 528465912, 528465900, 2668901633, 528465991, 2670819664, 2668901718, 2154576560, 2154576552, 528466001, 2154576591, 1424327435, 2668901755, 528466042, 2154576585, 6662675774, 6662676389, 1060261764, 6662675757, 6662676390, 2154576577, 6662675765, 6662675760, 6662676387, 6662675769, 528466328, 528466340, 6662675759, 6662675770, 6662675781, 528466348, 2668901782, 528466357, 6662675763, 2670824177, 6662675707, 6662675710, 528466212, 1424407799, 2668901761, 2668901687, 528466191, 1424407781, 528466316, 9768889061, 9768889060, 9768889059, 384935802, 9768889056, 384935804, 2154607197, 384935805, 384935806, 854663448, 854581005, 10770449979, 854674309, 384935808, 6400906565, 384935809, 996050621, 6400907889, 6400908206, 1424503369, 2154607227, 384935811, 6380632704, 2154591690, 6380632993, 6998066533, 854641532, 854596947, 854658667, 2154591698, 10810768520, 6998066534, 6998066535, 6380632820, 6998066536, 6400907905, 6380632710, 10807178318, 2154591688, 8639536480, 5324660197], "tags": {"amenity": "university", "branch": "La Bouloie", "name": "Universit\u00e9 Marie-et-Louis-Pasteur", "source": "Etablissements d'enseignement sup\u00e9rieur - 09/2017", "wikipedia": "fr:Universit\u00e9_Marie-et-Louis-Pasteur#La_Bouloie"}}, {"type": "way", "id": 42736527, "center": {"lat": 47.2238663, "lon": 8.8156291}, "nodes": [534414508, 8417849018, 8417848822, 8418428119, 8417527618, 8396599018, 8418428218, 8417848823, 8417848824, 8417849117, 8396598919, 534414508], "tags": {"addr:city": "Rapperswil (SG)", "addr:housenumber": "10", "addr:postcode": "8640", "addr:street": "Oberseestrasse", "alt_name": "Pavillon", "amenity": "university", "building": "university", "building:colour": "#735864", "building:levels": "2", "check_date": "2024-09-06", "name": "Container 2", "roof:colour": "silver", "roof:shape": "flat", "wheelchair": "no"}}, {"type": "way", "id": 44505081, "center": {"lat": 46.518698, "lon": 6.6331315},